StateCode,Id,Latitude,Longitude,Elevation,TimeZone,PrimaryCity
NY,00501,40.815400,-73.045600,25,-5,HOLTSVILLE
NY,00544,40.815400,-73.045600,25,-5,HOLTSVILLE
PR,00601,18.196747,-66.736735,0,-4,ADJUNTAS
PR,00602,18.352927,-67.177532,0,-4,AGUADA
PR,00603,18.458585,-67.129867,0,-4,AGUADILLA
PR,00604,18.488773,-67.147741,0,-4,AGUADILLA
PR,00605,18.428900,-67.153800,0,-4,AGUADILLA
PR,00606,18.166734,-66.939233,0,-4,MARICAO
PR,00610,18.294649,-67.130034,0,-4,ANASCO
PR,00611,18.285600,-66.969800,0,-4,ANGELES
PR,00612,18.388009,-66.665279,0,-4,ARECIBO
PR,00613,18.474400,-66.716300,0,-4,ARECIBO
PR,00614,18.474400,-66.716300,0,-4,ARECIBO
PR,00616,18.405484,-66.671233,0,-4,BAJADERO
PR,00617,18.429792,-66.558109,0,-4,BARCELONETA
PR,00622,17.992876,-67.153699,0,-4,BOQUERON
PR,00623,18.040203,-67.146574,0,-4,CABO ROJO
PR,00624,18.072797,-66.724825,0,-4,PENUELAS
PR,00627,18.425195,-66.867756,0,-4,CAMUY
PR,00631,18.224554,-66.867756,0,-4,CASTANER
PR,00636,18.164700,-67.079700,0,-4,ROSARIO
PR,00637,18.077592,-66.939232,0,-4,SABANA GRANDE
PR,00638,18.299662,-66.498579,0,-4,CIALES
PR,00641,18.279721,-66.689096,0,-4,UTUADO
PR,00646,18.459098,-66.272418,0,-4,DORADO
PR,00647,17.972520,-66.945189,0,-4,ENSENADA
PR,00650,18.363009,-66.558109,0,-4,FLORIDA
PR,00652,18.451909,-66.599784,0,-4,GARROCHALES
PR,00653,17.982516,-66.891581,0,-4,GUANICA
PR,00656,18.037324,-66.796287,0,-4,GUAYANILLA
PR,00659,18.416025,-66.796287,0,-4,HATILLO
PR,00660,18.138245,-67.111993,0,-4,HORMIGUEROS
PR,00662,18.456130,-67.022630,0,-4,ISABELA
PR,00664,18.210309,-66.581923,0,-4,JAYUYA
PR,00667,18.010034,-67.022630,0,-4,LAJAS
PR,00669,18.291418,-66.867756,0,-4,LARES
PR,00670,18.239633,-66.986887,0,-4,LAS MARIAS
PR,00674,18.433168,-66.498579,0,-4,MANATI
PR,00676,18.385559,-67.082204,0,-4,MOCA
PR,00677,18.331739,-67.231158,0,-4,RINCON
PR,00678,18.431293,-66.915406,0,-4,QUEBRADILLAS
PR,00680,18.210009,-67.106035,0,-4,MAYAGUEZ
PR,00681,18.121100,-67.082400,0,-4,MAYAGUEZ
PR,00682,18.220812,-67.147741,0,-4,MAYAGUEZ
PR,00683,18.099194,-67.022630,0,-4,SAN GERMAN
PR,00685,18.316188,-66.974973,0,-4,SAN SEBASTIAN
PR,00687,18.322194,-66.415246,0,-4,MOROVIS
PR,00688,18.349991,-66.629553,0,-4,SABANA HOYOS
PR,00690,18.501890,-67.097099,0,-4,SAN ANTONIO
PR,00692,18.401800,-66.343828,0,-4,VEGA ALTA
PR,00693,18.420721,-66.403342,0,-4,VEGA BAJA
PR,00694,18.446500,-66.388400,0,-4,VEGA BAJA
PR,00698,18.090875,-66.867756,0,-4,YAUCO
PR,00703,18.262566,-66.129629,0,-4,AGUAS BUENAS
PR,00704,17.980199,-66.218868,0,-4,AGUIRRE
PR,00705,18.135403,-66.260518,0,-4,AIBONITO
PR,00707,18.012675,-65.915522,0,-4,MAUNABO
PR,00714,17.987052,-66.058249,0,-4,ARROYO
PR,00715,18.007113,-66.558109,0,-4,MERCEDITA
PR,00716,17.987655,-66.623600,0,-4,PONCE
PR,00717,18.000417,-66.614669,0,-4,PONCE
PR,00718,18.250050,-65.784727,0,-4,NAGUABO
PR,00719,18.278197,-66.248617,0,-4,NARANJITO
PR,00720,18.204540,-66.450958,0,-4,OROCOVIS
PR,00721,18.301800,-66.080000,0,-4,PALMER
PR,00723,18.025158,-66.010668,0,-4,PATILLAS
PR,00725,18.205646,-66.034458,0,-4,CAGUAS
PR,00726,18.236400,-66.048900,0,-4,CAGUAS
PR,00727,18.216710,-66.055275,0,-4,CAGUAS
PR,00728,18.019233,-66.653370,0,-4,PONCE
PR,00729,18.341924,-65.891738,0,-4,CANOVANAS
PR,00730,18.032129,-66.623600,0,-4,PONCE
PR,00731,18.095571,-66.641462,0,-4,PONCE
PR,00732,18.013300,-66.614600,0,-4,PONCE
PR,00733,18.013300,-66.614600,0,-4,PONCE
PR,00734,18.013300,-66.614600,0,-4,PONCE
PR,00735,18.243581,-65.653972,0,-4,CEIBA
PR,00736,18.078621,-66.165322,0,-4,CAYEY
PR,00737,18.113800,-66.166700,0,-4,CAYEY
PR,00738,18.309990,-65.653972,0,-4,FAJARDO
PR,00739,18.176915,-66.153424,0,-4,CIDRA
PR,00740,18.338024,-65.593093,0,-4,PUERTO REAL
PR,00741,18.164620,-65.766894,0,-4,PUNTA SANTIAGO
PR,00742,18.266600,-65.648200,0,-4,ROOSEVELT ROADS
PR,00744,18.220200,-65.790200,0,-4,RIO BLANCO
PR,00745,18.345050,-65.832284,0,-4,RIO GRANDE
PR,00751,18.002225,-66.260518,0,-4,SALINAS
PR,00754,18.142369,-65.974986,0,-4,SAN LORENZO
PR,00757,17.985792,-66.391439,0,-4,SANTA ISABEL
PR,00765,18.126285,-65.440098,0,-4,VIEQUES
PR,00766,18.130000,-66.474329,0,-4,VILLALBA
PR,00767,18.068802,-65.903106,0,-4,YABUCOA
PR,00769,18.096036,-66.351012,0,-4,COAMO
PR,00771,18.196440,-65.872030,0,-4,LAS PIEDRAS
PR,00772,18.419378,-65.910867,0,-4,LOIZA
PR,00773,18.338815,-65.720102,0,-4,LUQUILLO
PR,00775,18.313697,-65.294233,0,-4,CULEBRA
PR,00777,18.206518,-65.901732,0,-4,JUNCOS
PR,00778,18.258919,-65.974639,0,-4,GURABO
PR,00780,18.071098,-66.562869,0,-4,COTO LAUREL
PR,00782,18.225014,-66.219798,0,-4,COMERIO
PR,00783,18.304629,-66.330493,0,-4,COROZAL
PR,00784,18.018004,-66.133308,0,-4,GUAYAMA
PR,00785,17.980000,-66.110100,0,-4,GUAYAMA
PR,00786,18.156400,-66.233600,0,-4,LA PLATA
PR,00791,18.138009,-65.818996,0,-4,HUMACAO
PR,00792,18.151900,-65.827900,0,-4,HUMACAO
PR,00794,18.200791,-66.307012,0,-4,BARRANQUITAS
PR,00795,18.017302,-66.493329,0,-4,JUANA DIAZ
VI,00801,18.343600,-64.931400,0,-4,ST THOMAS
VI,00802,18.343600,-64.932200,0,-4,ST THOMAS
VI,00803,18.343600,-64.931400,0,-4,ST THOMAS
VI,00804,18.343600,-64.931400,0,-4,ST THOMAS
VI,00805,18.343600,-64.931400,0,-4,ST THOMAS
VI,00820,17.745384,-64.703369,0,-4,CHRISTIANSTED
VI,00821,17.748800,-64.703900,0,-4,CHRISTIANSTED
VI,00822,17.748800,-64.703900,0,-4,CHRISTIANSTED
VI,00823,17.748800,-64.703900,0,-4,CHRISTIANSTED
VI,00824,17.748800,-64.703900,0,-4,CHRISTIANSTED
VI,00830,18.328200,-64.740700,0,-4,ST JOHN
VI,00831,18.333300,-64.794300,0,-4,ST JOHN
VI,00840,17.712409,-64.882164,0,-4,FREDERIKSTED
VI,00841,17.714700,-64.881800,0,-4,FREDERIKSTED
VI,00850,17.723000,-64.782950,0,-4,KINGSHILL
VI,00851,17.725300,-64.783600,0,-4,KINGSHILL
PR,00901,18.465400,-66.104373,0,-4,SAN JUAN
PR,00902,18.468300,-66.106100,0,-4,SAN JUAN
PR,00906,18.464620,-66.100780,0,-4,SAN JUAN
PR,00907,18.451852,-66.084976,0,-4,SAN JUAN
PR,00908,18.468300,-66.106100,0,-4,SAN JUAN
PR,00909,18.441112,-66.066068,0,-4,SAN JUAN
PR,00910,18.450000,-66.070000,0,-4,SAN JUAN
PR,00911,18.451408,-66.057889,0,-4,SAN JUAN
PR,00912,18.445384,-66.061116,0,-4,SAN JUAN
PR,00913,18.450365,-66.044399,0,-4,SAN JUAN
PR,00914,18.468300,-66.106100,0,-4,SAN JUAN
PR,00915,18.437208,-66.044602,0,-4,SAN JUAN
PR,00916,18.468300,-66.106100,0,-4,SAN JUAN
PR,00917,18.421194,-66.049352,0,-4,SAN JUAN
PR,00918,18.423656,-66.067402,0,-4,SAN JUAN
PR,00919,18.468300,-66.106100,0,-4,SAN JUAN
PR,00920,18.416061,-66.089552,0,-4,SAN JUAN
PR,00921,18.390532,-66.088420,0,-4,SAN JUAN
PR,00922,18.468300,-66.106100,0,-4,SAN JUAN
PR,00923,18.411380,-66.033958,0,-4,SAN JUAN
PR,00924,18.400569,-66.004960,0,-4,SAN JUAN
PR,00925,18.403282,-66.047812,0,-4,SAN JUAN
PR,00926,18.346460,-66.062461,0,-4,SAN JUAN
PR,00927,18.387590,-66.072006,0,-4,SAN JUAN
PR,00928,18.468300,-66.106100,0,-4,SAN JUAN
PR,00929,18.468300,-66.106100,0,-4,SAN JUAN
PR,00930,18.450000,-66.060000,0,-4,SAN JUAN
PR,00931,18.468300,-66.106100,0,-4,SAN JUAN
PR,00933,18.468300,-66.106100,0,-4,SAN JUAN
PR,00934,18.412973,-66.119834,0,-4,FORT BUCHANAN
PR,00935,18.468300,-66.106100,0,-4,SAN JUAN
PR,00936,18.468300,-66.106100,0,-4,SAN JUAN
PR,00937,18.468300,-66.106100,0,-4,SAN JUAN
PR,00939,18.468300,-66.106100,0,-4,SAN JUAN
PR,00940,18.466229,-66.105735,0,-4,SAN JUAN
PR,00949,18.432704,-66.199115,0,-4,TOA BAJA
PR,00950,18.444524,-66.255037,0,-4,TOA BAJA
PR,00951,18.445600,-66.260000,0,-4,TOA BAJA
PR,00952,18.428378,-66.180376,0,-4,SABANA SECA
PR,00953,18.357812,-66.258113,0,-4,TOA ALTA
PR,00954,18.390500,-66.248700,0,-4,TOA ALTA
PR,00955,18.469700,-66.117900,0,-4,SAN JUAN
PR,00956,18.323022,-66.172992,0,-4,BAYAMON
PR,00957,18.367240,-66.185126,0,-4,BAYAMON
PR,00958,18.400800,-66.158900,0,-4,BAYAMON
PR,00959,18.392506,-66.158212,0,-4,BAYAMON
PR,00960,18.393064,-66.154817,0,-4,BAYAMON
PR,00961,18.413087,-66.161162,0,-4,BAYAMON
PR,00962,18.441765,-66.140217,0,-4,CATANO
PR,00963,18.110300,-66.170000,0,-4,CATANO
PR,00965,18.430034,-66.119902,0,-4,GUAYNABO
PR,00966,18.397790,-66.116071,0,-4,GUAYNABO
PR,00968,18.414026,-66.108363,0,-4,GUAYNABO
PR,00969,18.330998,-66.112285,0,-4,GUAYNABO
PR,00970,18.359214,-66.110296,0,-4,GUAYNABO
PR,00971,18.330223,-66.114506,0,-4,GUAYNABO
PR,00975,18.468300,-66.106400,0,-4,SAN JUAN
PR,00976,18.337034,-65.990043,0,-4,TRUJILLO ALTO
PR,00977,18.356900,-66.007600,0,-4,TRUJILLO ALTO
PR,00978,18.370300,-66.012300,0,-4,SAINT JUST
PR,00979,18.438381,-66.011814,0,-4,CAROLINA
PR,00981,18.468300,-66.106400,0,-4,CAROLINA
PR,00982,18.409908,-65.997644,0,-4,CAROLINA
PR,00983,18.415614,-65.977729,0,-4,CAROLINA
PR,00984,18.382800,-65.957800,0,-4,CAROLINA
PR,00985,18.406221,-65.943942,0,-4,CAROLINA
PR,00986,18.382800,-65.957800,0,-4,CAROLINA
PR,00987,18.331133,-65.950318,0,-4,CAROLINA
PR,00988,18.382800,-65.957800,0,-4,CAROLINA
MA,01001,42.065842,-72.620948,70,-5,AGAWAM
MA,01002,42.372901,-72.450902,140,-5,AMHERST
MA,01003,42.391150,-72.524316,140,-5,AMHERST
MA,01004,42.373600,-72.520900,140,-5,AMHERST
MA,01005,42.420844,-72.106230,475,-5,BARRE
MA,01007,42.274798,-72.401922,140,-5,BELCHERTOWN
MA,01008,42.186964,-72.956111,70,-5,BLANDFORD
MA,01009,42.207500,-72.349600,70,-5,BONDSVILLE
MA,01010,42.126637,-72.204617,70,-5,BRIMFIELD
MA,01011,42.268566,-72.980845,70,-5,CHESTER
MA,01012,42.365393,-72.819914,140,-5,CHESTERFIELD
MA,01013,42.160827,-72.603375,70,-5,CHICOPEE
MA,01014,42.148600,-72.608500,70,-5,CHICOPEE
MA,01020,42.177620,-72.562566,70,-5,CHICOPEE
MA,01021,42.148600,-72.608500,70,-5,CHICOPEE
MA,01022,42.195565,-72.542478,70,-5,CHICOPEE
MA,01026,42.441033,-72.915573,140,-5,CUMMINGTON
MA,01027,42.292895,-72.717599,140,-5,EASTHAMPTON
MA,01028,42.061660,-72.498771,70,-5,EAST LONGMEADOW
MA,01029,42.192033,-73.045339,1039,-5,EAST OTIS
MA,01030,42.070474,-72.675174,70,-5,FEEDING HILLS
MA,01031,42.361100,-72.203820,475,-5,GILBERTVILLE
MA,01032,42.454455,-72.826714,140,-5,GOSHEN
MA,01033,42.257915,-72.505683,140,-5,GRANBY
MA,01034,42.092408,-72.949682,70,-5,GRANVILLE
MA,01035,42.356251,-72.585014,140,-5,HADLEY
MA,01036,42.072956,-72.416626,70,-5,HAMPDEN
MA,01037,42.378705,-72.192186,475,-5,HARDWICK
MA,01038,42.386300,-72.605880,140,-5,HATFIELD
MA,01039,42.411178,-72.688894,140,-5,HAYDENVILLE
MA,01040,42.222692,-72.640474,70,-5,HOLYOKE
MA,01041,42.204300,-72.616700,70,-5,HOLYOKE
MA,01050,42.270928,-72.903169,140,-5,HUNTINGTON
MA,01053,42.352158,-72.715494,140,-5,LEEDS
MA,01054,42.475356,-72.487555,250,-5,LEVERETT
MA,01056,42.192007,-72.458720,70,-5,LUDLOW
MA,01057,42.095536,-72.312918,70,-5,MONSON
MA,01059,42.373800,-72.520500,140,-5,NORTH AMHERST
MA,01060,42.329604,-72.625124,140,-5,NORTHAMPTON
MA,01061,42.325100,-72.641800,140,-5,NORTHAMPTON
MA,01062,42.330067,-72.692655,140,-5,FLORENCE
MA,01062,42.330067,-72.692655,140,-5,NORTHAMPTON
MA,01063,42.318220,-72.637674,140,-5,NORTHAMPTON
MA,01066,42.410700,-72.625300,140,-5,NORTH HATFIELD
MA,01068,42.353309,-72.051399,475,-5,OAKHAM
MA,01069,42.192062,-72.307682,70,-5,PALMER
MA,01070,42.519603,-72.925186,140,-5,PLAINFIELD
MA,01071,42.169224,-72.854502,70,-5,RUSSELL
MA,01072,42.463022,-72.419998,250,-5,SHUTESBURY
MA,01073,42.230586,-72.741034,140,-5,SOUTHAMPTON
MA,01074,42.382400,-72.099800,475,-5,SOUTH BARRE
MA,01075,42.258591,-72.575936,140,-5,SOUTH HADLEY
MA,01077,42.049922,-72.772197,70,-5,SOUTHWICK
MA,01079,42.196800,-72.327100,70,-5,THORNDIKE
MA,01080,42.178348,-72.370504,70,-5,THREE RIVERS
MA,01081,42.061818,-72.231415,70,-5,WALES
MA,01082,42.288872,-72.277566,140,-5,WARE
MA,01083,42.202992,-72.197431,475,-5,WARREN
MA,01084,42.386792,-72.879415,140,-5,WEST CHESTERFIELD
MA,01085,42.162725,-72.771374,70,-5,WESTFIELD
MA,01086,42.125300,-72.750100,70,-5,WESTFIELD
MA,01088,42.388711,-72.646558,140,-5,WEST HATFIELD
MA,01089,42.125682,-72.641677,70,-5,WEST SPRINGFIELD
MA,01090,42.106800,-72.620600,70,-5,WEST SPRINGFIELD
MA,01092,42.202417,-72.221696,475,-5,WEST WARREN
MA,01093,42.439900,-72.635300,250,-5,WHATELY
MA,01094,42.351700,-72.140500,475,-5,WHEELWRIGHT
MA,01095,42.134675,-72.432176,70,-5,WILBRAHAM
MA,01096,42.436118,-72.770062,140,-5,WILLIAMSBURG
MA,01097,42.159400,-72.875100,70,-5,WORONOCO
MA,01098,42.390244,-72.947238,140,-5,WORTHINGTON
MA,01101,42.105696,-72.598079,70,-5,SPRINGFIELD
MA,01102,42.101500,-72.590500,70,-5,SPRINGFIELD
MA,01103,42.103366,-72.590557,70,-5,SPRINGFIELD
MA,01104,42.129540,-72.569176,70,-5,SPRINGFIELD
MA,01105,42.100995,-72.581566,70,-5,SPRINGFIELD
MA,01106,42.050560,-72.565884,70,-5,LONGMEADOW
MA,01107,42.121306,-72.608910,70,-5,SPRINGFIELD
MA,01108,42.081140,-72.557783,70,-5,SPRINGFIELD
MA,01109,42.118748,-72.549032,70,-5,SPRINGFIELD
MA,01111,42.101500,-72.590500,70,-5,SPRINGFIELD
MA,01115,42.101500,-72.590500,70,-5,SPRINGFIELD
MA,01116,42.064700,-72.513100,70,-5,LONGMEADOW
MA,01118,42.095584,-72.524304,70,-5,SPRINGFIELD
MA,01119,42.122508,-72.511518,70,-5,SPRINGFIELD
MA,01128,42.095804,-72.485598,70,-5,SPRINGFIELD
MA,01129,42.120974,-72.487872,70,-5,SPRINGFIELD
MA,01138,42.101500,-72.590500,70,-5,SPRINGFIELD
MA,01139,42.101500,-72.590500,70,-5,SPRINGFIELD
MA,01144,42.103200,-72.591600,70,-5,SPRINGFIELD
MA,01151,42.151278,-72.510524,70,-5,INDIAN ORCHARD
MA,01151,42.151278,-72.510524,70,-5,SPRINGFIELD
MA,01152,42.102800,-72.592100,70,-5,SPRINGFIELD
MA,01199,42.101500,-72.590500,70,-5,SPRINGFIELD
MA,01201,42.466531,-73.289364,1039,-5,PITTSFIELD
MA,01202,42.450100,-73.245600,1039,-5,PITTSFIELD
MA,01203,42.450100,-73.245600,1039,-5,PITTSFIELD
MA,01220,42.627128,-73.118690,1039,-5,ADAMS
MA,01222,42.065432,-73.316479,1039,-5,ASHLEY FALLS
MA,01223,42.324078,-73.130876,1039,-5,BECKET
MA,01224,42.503468,-73.202113,1039,-5,BERKSHIRE
MA,01225,42.558246,-73.147934,1039,-5,CHESHIRE
MA,01226,42.476620,-73.146709,1039,-5,DALTON
MA,01227,42.473900,-73.166700,1039,-5,DALTON
MA,01229,42.283600,-73.344500,1039,-5,GLENDALE
MA,01230,42.171162,-73.330261,1039,-5,GREAT BARRINGTON
MA,01235,42.395900,-73.076287,1039,-5,HINSDALE
MA,01236,42.263088,-73.383452,1039,-5,HOUSATONIC
MA,01237,42.560748,-73.244402,1039,-5,LANESBOROUGH
MA,01238,42.287955,-73.206905,1039,-5,LEE
MA,01240,42.366471,-73.271106,1039,-5,LENOX
MA,01242,42.339438,-73.246692,1039,-5,LENOX DALE
MA,01243,42.348104,-73.002747,140,-5,MIDDLEFIELD
MA,01244,42.137294,-73.195265,1039,-5,MILL RIVER
MA,01245,42.179822,-73.196867,1039,-5,MONTEREY
MA,01247,42.695558,-73.087992,1039,-5,NORTH ADAMS
MA,01252,42.196700,-73.438600,1039,-5,NORTH EGREMONT
MA,01253,42.195522,-73.094484,1039,-5,OTIS
MA,01254,42.379056,-73.365874,1039,-5,RICHMOND
MA,01255,42.113526,-73.119992,1039,-5,SANDISFIELD
MA,01256,42.589611,-73.022988,1039,-5,SAVOY
MA,01257,42.103930,-73.367684,1039,-5,SHEFFIELD
MA,01258,42.102233,-73.464080,1039,-5,SOUTH EGREMONT
MA,01259,42.079208,-73.238182,1039,-5,SOUTHFIELD
MA,01260,42.277500,-73.277800,1039,-5,SOUTH LEE
MA,01262,42.296779,-73.325880,1039,-5,STOCKBRIDGE
MA,01263,42.287800,-73.320800,1039,-5,STOCKBRIDGE
MA,01264,42.226510,-73.197611,1039,-5,TYRINGHAM
MA,01266,42.288658,-73.377778,1039,-5,WEST STOCKBRIDGE
MA,01267,42.642268,-73.252598,1039,-5,WILLIAMSTOWN
MA,01270,42.513070,-73.050235,1039,-5,WINDSOR
MA,01301,42.631883,-72.597420,250,-5,GREENFIELD
MA,01302,42.587800,-72.600300,250,-5,GREENFIELD
MA,01330,42.525896,-72.809340,250,-5,ASHFIELD
MA,01331,42.560683,-72.183898,475,-5,ATHOL
MA,01337,42.690129,-72.585089,250,-5,BERNARDSTON
MA,01338,42.580045,-72.800323,250,-5,BUCKLAND
MA,01339,42.631660,-72.878137,250,-5,CHARLEMONT
MA,01340,42.675342,-72.740774,250,-5,COLRAIN
MA,01341,42.509748,-72.699049,250,-5,CONWAY
MA,01342,42.539988,-72.618433,250,-5,DEERFIELD
MA,01343,42.651664,-72.990795,1039,-5,DRURY
MA,01344,42.608914,-72.424560,250,-5,ERVING
MA,01346,42.665724,-72.833294,250,-5,HEATH
MA,01347,42.556700,-72.518600,250,-5,LAKE PLEASANT
MA,01349,42.573938,-72.484196,250,-5,MILLERS FALLS
MA,01350,42.721188,-72.975162,250,-5,MONROE BRIDGE
MA,01351,42.548217,-72.511166,250,-5,MONTAGUE
MA,01354,42.638410,-72.509488,250,-5,GILL
MA,01355,42.426036,-72.316418,250,-5,NEW SALEM
MA,01360,42.666519,-72.446882,250,-5,NORTHFIELD
MA,01364,42.620458,-72.294444,250,-5,ORANGE
MA,01366,42.445872,-72.213524,475,-5,PETERSHAM
MA,01367,42.695870,-72.934949,250,-5,ROWE
MA,01368,42.670469,-72.197026,475,-5,ROYALSTON
MA,01370,42.601438,-72.739108,250,-5,SHELBURNE FALLS
MA,01373,42.464914,-72.617160,250,-5,SOUTH DEERFIELD
MA,01375,42.466106,-72.555454,250,-5,SUNDERLAND
MA,01376,42.593404,-72.540041,250,-5,TURNERS FALLS
MA,01378,42.666338,-72.344874,250,-5,WARWICK
MA,01379,42.554654,-72.408295,250,-5,WENDELL
MA,01380,42.588368,-72.395956,250,-5,WENDELL DEPOT
MA,01420,42.582812,-71.806590,475,-5,FITCHBURG
MA,01430,42.655656,-71.922012,475,-5,ASHBURNHAM
MA,01431,42.673591,-71.834337,40,-5,ASHBY
MA,01432,42.562912,-71.568824,40,-5,AYER
MA,01434,42.534958,-71.611484,40,-5,DEVENS
MA,01436,42.600122,-72.086316,475,-5,BALDWINVILLE
MA,01438,42.565092,-72.031569,475,-5,EAST TEMPLETON
MA,01440,42.589966,-71.986054,475,-5,GARDNER
MA,01441,42.575000,-71.998800,475,-5,WESTMINSTER
MA,01450,42.616190,-71.576808,40,-5,GROTON
MA,01451,42.498546,-71.581862,475,-5,HARVARD
MA,01452,42.484168,-72.011197,475,-5,HUBBARDSTON
MA,01453,42.524468,-71.772212,475,-5,LEOMINSTER
MA,01460,42.537958,-71.484974,40,-5,LITTLETON
MA,01462,42.587142,-71.720924,475,-5,LUNENBURG
MA,01463,42.665524,-71.599356,40,-5,PEPPERELL
MA,01464,42.579502,-71.644512,40,-5,SHIRLEY
MA,01467,42.484420,-71.628970,475,-5,STILL RIVER
MA,01468,42.543162,-72.066854,475,-5,TEMPLETON
MA,01469,42.659557,-71.702288,40,-5,TOWNSEND
MA,01470,42.611200,-71.575200,40,-5,GROTON
MA,01471,42.611200,-71.575200,40,-5,GROTON
MA,01472,42.600600,-71.630200,40,-5,WEST GROTON
MA,01473,42.559479,-71.908706,475,-5,WESTMINSTER
MA,01474,42.669670,-71.743376,40,-5,WEST TOWNSEND
MA,01475,42.660866,-72.048898,475,-5,WINCHENDON
MA,01501,42.195675,-71.846070,475,-5,AUBURN
MA,01503,42.384234,-71.629366,475,-5,BERLIN
MA,01504,42.039526,-71.530657,475,-5,BLACKSTONE
MA,01505,42.353970,-71.717353,475,-5,BOYLSTON
MA,01506,42.194498,-72.103822,475,-5,BROOKFIELD
MA,01507,42.131775,-71.973205,475,-5,CHARLTON
MA,01508,42.147600,-71.998200,475,-5,CHARLTON CITY
MA,01509,42.173300,-71.979400,475,-5,CHARLTON DEPOT
MA,01510,42.413200,-71.691270,475,-5,CLINTON
MA,01515,42.207255,-72.048914,475,-5,EAST BROOKFIELD
MA,01516,42.054573,-71.754706,475,-5,DOUGLAS
MA,01518,42.106473,-72.114044,475,-5,FISKDALE
MA,01519,42.202961,-71.681070,475,-5,GRAFTON
MA,01520,42.333798,-71.853266,475,-5,HOLDEN
MA,01521,42.064504,-72.168424,70,-5,HOLLAND
MA,01522,42.376355,-71.872314,475,-5,JEFFERSON
MA,01523,42.472120,-71.667642,475,-5,LANCASTER
MA,01524,42.240144,-71.918765,475,-5,LEICESTER
MA,01525,42.097300,-71.645500,475,-5,LINWOOD
MA,01526,42.094500,-71.748200,475,-5,MANCHAUG
MA,01527,42.190800,-71.779474,475,-5,MILLBURY
MA,01529,42.039469,-71.577323,475,-5,MILLVILLE
MA,01531,42.320452,-72.129492,475,-5,NEW BRAINTREE
MA,01532,42.330073,-71.635176,475,-5,NORTHBOROUGH
MA,01534,42.136202,-71.642674,475,-5,NORTHBRIDGE
MA,01535,42.268925,-72.082930,475,-5,NORTH BROOKFIELD
MA,01536,42.224812,-71.689330,475,-5,NORTH GRAFTON
MA,01537,42.162944,-71.891157,475,-5,NORTH OXFORD
MA,01538,42.087800,-71.641700,475,-5,NORTH UXBRIDGE
MA,01540,42.121482,-71.854026,475,-5,OXFORD
MA,01541,42.456909,-71.890806,475,-5,PRINCETON
MA,01542,42.201258,-71.910758,475,-5,ROCHDALE
MA,01543,42.383117,-71.961566,475,-5,RUTLAND
MA,01545,42.286780,-71.713616,475,-5,SHREWSBURY
MA,01546,42.295900,-71.713400,475,-5,SHREWSBURY
MA,01550,42.067572,-72.044007,475,-5,SOUTHBRIDGE
MA,01560,42.174762,-71.679842,475,-5,SOUTH GRAFTON
MA,01561,42.444400,-71.687600,475,-5,SOUTH LANCASTER
MA,01562,42.247962,-71.990742,475,-5,SPENCER
MA,01564,42.439322,-71.776608,475,-5,STERLING
MA,01566,42.101636,-72.079806,475,-5,STURBRIDGE
MA,01568,42.176133,-71.604529,475,-5,UPTON
MA,01569,42.062542,-71.643650,475,-5,UXBRIDGE
MA,01570,42.058201,-71.848067,475,-5,WEBSTER
MA,01571,42.059683,-71.936768,475,-5,DUDLEY
MA,01581,42.266153,-71.609220,475,-5,WESTBOROUGH
MA,01583,42.359146,-71.782384,475,-5,WEST BOYLSTON
MA,01585,42.227596,-72.164598,475,-5,WEST BROOKFIELD
MA,01586,42.175600,-71.802700,475,-5,WEST MILLBURY
MA,01588,42.125659,-71.664119,475,-5,WHITINSVILLE
MA,01590,42.135437,-71.755846,475,-5,SUTTON
MA,01601,42.262700,-71.802800,475,-5,WORCESTER
MA,01602,42.274402,-71.847756,475,-5,WORCESTER
MA,01603,42.244677,-71.844808,475,-5,WORCESTER
MA,01604,42.249198,-71.764908,475,-5,WORCESTER
MA,01605,42.288915,-71.795780,475,-5,WORCESTER
MA,01606,42.313314,-71.796346,475,-5,WORCESTER
MA,01607,42.225438,-71.787240,475,-5,WORCESTER
MA,01608,42.258592,-71.803034,475,-5,WORCESTER
MA,01609,42.287550,-71.830670,475,-5,WORCESTER
MA,01610,42.242612,-71.810432,475,-5,WORCESTER
MA,01611,42.235219,-71.876892,475,-5,CHERRY VALLEY
MA,01612,42.315184,-71.934535,475,-5,PAXTON
MA,01613,42.262700,-71.802800,475,-5,WORCESTER
MA,01614,42.262700,-71.802800,475,-5,WORCESTER
MA,01615,42.262700,-71.802800,475,-5,WORCESTER
MA,01653,42.262700,-71.802800,475,-5,WORCESTER
MA,01655,42.262700,-71.802800,475,-5,WORCESTER
MA,01701,42.323168,-71.435188,40,-5,FRAMINGHAM
MA,01702,42.278748,-71.443616,40,-5,FRAMINGHAM
MA,01703,42.302600,-71.423600,40,-5,FRAMINGHAM
MA,01704,42.302600,-71.423600,40,-5,FRAMINGHAM
MA,01705,42.302600,-71.423600,40,-5,FRAMINGHAM
MA,01718,42.519469,-71.428982,40,-5,VILLAGE OF NAGOG WOODS
MA,01719,42.491359,-71.517726,40,-5,BOXBOROUGH
MA,01720,42.484174,-71.439501,40,-5,ACTON
MA,01721,42.259390,-71.468254,40,-5,ASHLAND
MA,01730,42.499880,-71.275308,40,-5,BEDFORD
MA,01731,42.463052,-71.285098,40,-5,HANSCOM AFB
MA,01740,42.438164,-71.604890,475,-5,BOLTON
MA,01741,42.532130,-71.352461,40,-5,CARLISLE
MA,01742,42.460612,-71.364231,40,-5,CONCORD
MA,01745,42.291501,-71.500158,475,-5,FAYVILLE
MA,01746,42.197434,-71.441187,40,-5,HOLLISTON
MA,01747,42.127000,-71.535778,475,-5,HOPEDALE
MA,01748,42.226648,-71.531466,40,-5,HOPKINTON
MA,01749,42.389119,-71.538802,40,-5,HUDSON
MA,01752,42.345921,-71.550943,40,-5,MARLBOROUGH
MA,01754,42.428493,-71.457710,40,-5,MAYNARD
MA,01756,42.103812,-71.544618,475,-5,MENDON
MA,01757,42.153808,-71.525760,475,-5,MILFORD
MA,01760,42.287150,-71.352332,40,-5,NATICK
MA,01770,42.231344,-71.374631,40,-5,SHERBORN
MA,01772,42.296533,-71.535209,475,-5,SOUTHBOROUGH
MA,01773,42.427159,-71.312442,40,-5,LINCOLN
MA,01775,42.429867,-71.503594,40,-5,STOW
MA,01776,42.388828,-71.423040,40,-5,SUDBURY
MA,01778,42.361190,-71.362933,40,-5,WAYLAND
MA,01784,42.237600,-71.562700,40,-5,WOODVILLE
MA,01801,42.489526,-71.158884,40,-5,WOBURN
MA,01803,42.505988,-71.204536,40,-5,BURLINGTON
MA,01805,42.504400,-71.196400,40,-5,BURLINGTON
MA,01810,42.649578,-71.166028,9,-5,ANDOVER
MA,01812,42.658500,-71.137700,9,-5,ANDOVER
MA,01813,42.479300,-71.152600,40,-5,WOBURN
MA,01815,42.479300,-71.152600,40,-5,WOBURN
MA,01821,42.549069,-71.255880,40,-5,BILLERICA
MA,01822,42.558600,-71.269500,40,-5,BILLERICA
MA,01824,42.587771,-71.351760,40,-5,CHELMSFORD
MA,01826,42.692560,-71.309028,40,-5,DRACUT
MA,01827,42.673198,-71.502242,40,-5,DUNSTABLE
MA,01830,42.795190,-71.055630,9,-5,HAVERHILL
MA,01831,42.776300,-71.077800,9,-5,HAVERHILL
MA,01832,42.791176,-71.129295,9,-5,HAVERHILL
MA,01833,42.723822,-70.978220,9,-5,GEORGETOWN
MA,01834,42.750920,-71.009929,9,-5,GROVELAND
MA,01835,42.753546,-71.086654,9,-5,HAVERHILL
MA,01840,42.705940,-71.159753,9,-5,LAWRENCE
MA,01841,42.708653,-71.163282,9,-5,LAWRENCE
MA,01842,42.706900,-71.166000,9,-5,LAWRENCE
MA,01843,42.691573,-71.161102,9,-5,LAWRENCE
MA,01844,42.731861,-71.185780,9,-5,METHUEN
MA,01845,42.673022,-71.088049,9,-5,NORTH ANDOVER
MA,01850,42.655639,-71.303458,40,-5,LOWELL
MA,01851,42.624348,-71.339113,40,-5,LOWELL
MA,01852,42.628515,-71.296476,40,-5,LOWELL
MA,01853,42.643500,-71.310100,40,-5,LOWELL
MA,01854,42.649275,-71.346363,40,-5,LOWELL
MA,01860,42.836580,-71.011550,9,-5,MERRIMAC
MA,01862,42.568284,-71.292290,40,-5,NORTH BILLERICA
MA,01863,42.631398,-71.388618,40,-5,NORTH CHELMSFORD
MA,01864,42.580490,-71.087025,40,-5,NORTH READING
MA,01865,42.538100,-71.268900,40,-5,NUTTING LAKE
MA,01866,42.530400,-71.227800,40,-5,PINEHURST
MA,01867,42.533282,-71.103608,40,-5,READING
MA,01876,42.611064,-71.231595,40,-5,TEWKSBURY
MA,01879,42.658821,-71.432972,40,-5,TYNGSBORO
MA,01880,42.501286,-71.066727,40,-5,WAKEFIELD
MA,01885,42.707700,-71.065800,9,-5,WEST BOXFORD
MA,01886,42.588996,-71.441744,40,-5,WESTFORD
MA,01887,42.565327,-71.174652,40,-5,WILMINGTON
MA,01888,42.480600,-71.151600,40,-5,WOBURN
MA,01889,42.576300,-71.078800,40,-5,NORTH READING
MA,01890,42.449942,-71.149990,40,-5,WINCHESTER
MA,01899,42.658600,-71.137500,9,-5,ANDOVER
MA,01901,42.460542,-70.946140,9,-5,LYNN
MA,01902,42.473415,-70.942636,9,-5,LYNN
MA,01903,42.463800,-70.947900,9,-5,LYNN
MA,01904,42.489185,-70.968944,9,-5,LYNN
MA,01905,42.475945,-70.980115,9,-5,LYNN
MA,01906,42.467474,-71.012852,9,-5,SAUGUS
MA,01907,42.475170,-70.904971,9,-5,SWAMPSCOTT
MA,01908,42.435967,-70.920912,9,-5,NAHANT
MA,01910,42.466700,-70.950300,9,-5,LYNN
MA,01913,42.853164,-70.951838,9,-5,AMESBURY
MA,01915,42.567821,-70.858080,9,-5,BEVERLY
MA,01921,42.679297,-71.029386,9,-5,BOXFORD
MA,01922,42.758286,-70.917065,9,-5,BYFIELD
MA,01923,42.576767,-70.951352,9,-5,DANVERS
MA,01929,42.632303,-70.778430,9,-5,ESSEX
MA,01930,42.630956,-70.683382,9,-5,GLOUCESTER
MA,01931,42.615900,-70.662700,9,-5,GLOUCESTER
MA,01936,42.620800,-70.857800,9,-5,HAMILTON
MA,01937,42.583400,-70.985900,9,-5,HATHORNE
MA,01938,42.682948,-70.847264,9,-5,IPSWICH
MA,01940,42.538193,-71.030538,9,-5,LYNNFIELD
MA,01944,42.579530,-70.765114,9,-5,MANCHESTER
MA,01945,42.500168,-70.864898,9,-5,MARBLEHEAD
MA,01949,42.602573,-71.013696,9,-5,MIDDLETON
MA,01950,42.814230,-70.874524,9,-5,NEWBURYPORT
MA,01951,42.755307,-70.849598,9,-5,NEWBURY
MA,01952,42.850347,-70.863299,9,-5,SALISBURY
MA,01960,42.532576,-70.973660,9,-5,PEABODY
MA,01961,42.527800,-70.929400,9,-5,PEABODY
MA,01965,42.559000,-70.825300,9,-5,PRIDES CROSSING
MA,01966,42.660540,-70.616169,9,-5,ROCKPORT
MA,01969,42.717874,-70.895394,9,-5,ROWLEY
MA,01970,42.514708,-70.907522,9,-5,SALEM
MA,01971,42.519500,-70.897200,9,-5,SALEM
MA,01982,42.626832,-70.860216,9,-5,SOUTH HAMILTON
MA,01983,42.635633,-70.944318,9,-5,TOPSFIELD
MA,01984,42.601974,-70.872882,9,-5,WENHAM
MA,01985,42.791528,-70.968849,9,-5,WEST NEWBURY
MA,02018,42.174700,-70.884500,50,-5,ACCORD
MA,02019,42.076452,-71.472236,120,-5,BELLINGHAM
MA,02020,42.086300,-70.641700,50,-5,BRANT ROCK
MA,02021,42.182710,-71.122104,120,-5,CANTON
MA,02025,42.232751,-70.815908,120,-5,COHASSET
MA,02026,42.244598,-71.181152,120,-5,DEDHAM
MA,02027,42.247200,-71.166400,120,-5,DEDHAM
MA,02030,42.241727,-71.287522,120,-5,DOVER
MA,02032,42.154132,-71.215034,120,-5,EAST WALPOLE
MA,02035,42.060874,-71.235452,120,-5,FOXBORO
MA,02038,42.087009,-71.407757,120,-5,FRANKLIN
MA,02040,42.179200,-70.750100,50,-5,GREENBUSH
MA,02041,42.077500,-70.650000,50,-5,GREEN HARBOR
MA,02043,42.215769,-70.879249,50,-5,HINGHAM
MA,02044,42.203900,-70.878900,50,-5,HINGHAM
MA,02045,42.284262,-70.888204,50,-5,HULL
MA,02047,42.136100,-70.690800,50,-5,HUMAROCK
MA,02048,42.016984,-71.221894,30,-5,MANSFIELD
MA,02050,42.111083,-70.713148,50,-5,MARSHFIELD
MA,02051,42.145900,-70.740500,50,-5,MARSHFIELD HILLS
MA,02052,42.182364,-71.310053,120,-5,MEDFIELD
MA,02053,42.152946,-71.427022,120,-5,MEDWAY
MA,02054,42.166160,-71.361252,120,-5,MILLIS
MA,02055,42.240300,-70.762600,50,-5,MINOT
MA,02056,42.116503,-71.331134,120,-5,NORFOLK
MA,02059,42.143400,-70.770500,50,-5,NORTH MARSHFIELD
MA,02060,42.218700,-70.786100,50,-5,NORTH SCITUATE
MA,02061,42.151425,-70.821397,50,-5,NORWELL
MA,02062,42.181894,-71.196680,120,-5,NORWOOD
MA,02065,42.091800,-70.706100,50,-5,OCEAN BLUFF
MA,02066,42.207539,-70.775681,50,-5,SCITUATE
MA,02067,42.111125,-71.185819,120,-5,SHARON
MA,02070,42.028300,-71.397600,120,-5,SHELDONVILLE
MA,02071,42.101912,-71.272054,120,-5,SOUTH WALPOLE
MA,02072,42.118550,-71.103346,120,-5,STOUGHTON
MA,02081,42.150832,-71.258996,120,-5,WALPOLE
MA,02090,42.221173,-71.199439,120,-5,WESTWOOD
MA,02093,42.055321,-71.371588,120,-5,WRENTHAM
MA,02108,42.357322,-71.064500,20,-5,BOSTON
MA,02109,42.363244,-71.053774,20,-5,BOSTON
MA,02110,42.358162,-71.054065,20,-5,BOSTON
MA,02111,42.350274,-71.058768,20,-5,BOSTON
MA,02112,42.358600,-71.060500,20,-5,BOSTON
MA,02113,42.365161,-71.055472,20,-5,BOSTON
MA,02114,42.362250,-71.067337,20,-5,BOSTON
MA,02115,42.342124,-71.096672,20,-5,BOSTON
MA,02116,42.350571,-71.076869,20,-5,BOSTON
MA,02117,42.358600,-71.060500,20,-5,BOSTON
MA,02118,42.337039,-71.072034,20,-5,BOSTON
MA,02119,42.323038,-71.084684,20,-5,ROXBURY
MA,02120,42.332608,-71.096530,20,-5,ROXBURY CROSSING
MA,02121,42.307319,-71.085935,20,-5,DORCHESTER
MA,02122,42.296954,-71.054622,20,-5,DORCHESTER
MA,02123,42.358600,-71.060500,20,-5,BOSTON
MA,02124,42.284910,-71.069753,20,-5,DORCHESTER CENTER
MA,02125,42.315824,-71.055735,20,-5,DORCHESTER
MA,02126,42.275794,-71.090714,20,-5,MATTAPAN
MA,02127,42.336076,-71.035834,20,-5,BOSTON
MA,02127,42.336076,-71.035834,20,-5,SOUTH BOSTON
MA,02128,42.373323,-71.015505,20,-5,BOSTON
MA,02129,42.381680,-71.064086,20,-5,CHARLESTOWN
MA,02130,42.310509,-71.117394,20,-5,JAMAICA PLAIN
MA,02131,42.283528,-71.121772,20,-5,ROSLINDALE
MA,02132,42.279314,-71.165852,20,-5,WEST ROXBURY
MA,02133,42.357200,-71.079600,20,-5,BOSTON
MA,02134,42.357649,-71.128887,20,-5,ALLSTON
MA,02135,42.348778,-71.155071,20,-5,BRIGHTON
MA,02136,42.252918,-71.129278,20,-5,HYDE PARK
MA,02137,42.358600,-71.060500,20,-5,READVILLE
MA,02138,42.380054,-71.132952,40,-5,CAMBRIDGE
MA,02139,42.364397,-71.101196,40,-5,CAMBRIDGE
MA,02140,42.393254,-71.134540,40,-5,CAMBRIDGE
MA,02141,42.370159,-71.080748,40,-5,CAMBRIDGE
MA,02142,42.362490,-71.080492,40,-5,CAMBRIDGE
MA,02143,42.382964,-71.095574,40,-5,SOMERVILLE
MA,02144,42.402311,-71.120370,40,-5,SOMERVILLE
MA,02145,42.391354,-71.092668,40,-5,SOMERVILLE
MA,02148,42.432790,-71.054417,40,-5,MALDEN
MA,02149,42.405952,-71.051671,40,-5,EVERETT
MA,02150,42.399590,-71.031560,20,-5,CHELSEA
MA,02151,42.419035,-70.996328,20,-5,REVERE
MA,02152,42.367752,-70.975450,20,-5,WINTHROP
MA,02153,42.403614,-71.120162,40,-5,MEDFORD
MA,02155,42.424993,-71.111104,40,-5,MEDFORD
MA,02156,42.429300,-71.128500,40,-5,WEST MEDFORD
MA,02163,42.368405,-71.127172,20,-5,BOSTON
MA,02169,42.242921,-71.009972,120,-5,QUINCY
MA,02170,42.267422,-71.016594,120,-5,QUINCY
MA,02171,42.296117,-70.999722,120,-5,QUINCY
MA,02176,42.457592,-71.054207,40,-5,MELROSE
MA,02180,42.473096,-71.097090,40,-5,STONEHAM
MA,02184,42.203355,-71.004824,120,-5,BRAINTREE
MA,02185,42.210100,-70.990200,120,-5,BRAINTREE
MA,02186,42.239587,-71.081122,120,-5,MILTON
MA,02187,42.279500,-71.078200,120,-5,MILTON VILLAGE
MA,02188,42.207039,-70.953848,120,-5,WEYMOUTH
MA,02189,42.214470,-70.933358,120,-5,EAST WEYMOUTH
MA,02190,42.165033,-70.950188,120,-5,SOUTH WEYMOUTH
MA,02191,42.246844,-70.943521,120,-5,NORTH WEYMOUTH
MA,02196,42.358600,-71.060300,20,-5,BOSTON
MA,02199,42.347435,-71.082265,20,-5,BOSTON
MA,02201,42.358600,-71.060300,20,-5,BOSTON
MA,02203,42.361200,-71.060300,20,-5,BOSTON
MA,02204,42.358600,-71.060300,20,-5,BOSTON
MA,02205,42.351200,-71.053600,20,-5,BOSTON
MA,02206,42.358600,-71.060300,20,-5,BOSTON
MA,02210,42.346571,-71.039563,20,-5,BOSTON
MA,02211,42.358600,-71.060300,20,-5,BOSTON
MA,02212,42.336200,-71.017600,20,-5,BOSTON
MA,02215,42.345189,-71.106132,20,-5,BOSTON
MA,02217,42.358600,-71.060300,20,-5,BOSTON
MA,02222,42.366297,-71.062845,20,-5,BOSTON
MA,02228,42.373900,-71.015000,20,-5,EAST BOSTON
MA,02238,42.366900,-71.100200,40,-5,CAMBRIDGE
MA,02241,42.358600,-71.060300,20,-5,BOSTON
MA,02266,42.358600,-71.060300,20,-5,BOSTON
MA,02269,42.252800,-71.002500,120,-5,QUINCY
MA,02283,42.358600,-71.060300,20,-5,BOSTON
MA,02284,42.358600,-71.060300,20,-5,BOSTON
MA,02293,42.358600,-71.060300,20,-5,BOSTON
MA,02297,42.358600,-71.060300,20,-5,BOSTON
MA,02298,42.340000,-71.050000,20,-5,BOSTON
MA,02301,42.078480,-71.038417,50,-5,BROCKTON
MA,02302,42.085916,-71.000073,50,-5,BROCKTON
MA,02303,42.083400,-71.018800,50,-5,BROCKTON
MA,02304,42.083400,-71.018800,50,-5,BROCKTON
MA,02305,42.083400,-71.018800,50,-5,BROCKTON
MA,02322,42.128841,-71.046906,120,-5,AVON
MA,02324,41.970648,-70.973158,50,-5,BRIDGEWATER
MA,02325,41.990130,-70.963100,50,-5,BRIDGEWATER
MA,02327,42.042500,-70.845900,50,-5,BRYANTVILLE
MA,02330,41.874056,-70.764752,50,-5,CARVER
MA,02331,42.041400,-70.672600,50,-5,DUXBURY
MA,02332,42.045707,-70.690549,50,-5,DUXBURY
MA,02333,42.033736,-70.942548,50,-5,EAST BRIDGEWATER
MA,02334,42.027500,-71.127900,30,-5,EASTON
MA,02337,42.015400,-70.964600,50,-5,ELMWOOD
MA,02338,41.987159,-70.859338,50,-5,HALIFAX
MA,02339,42.122752,-70.851774,50,-5,HANOVER
MA,02340,42.122300,-70.856400,50,-5,HANOVER
MA,02341,42.055769,-70.873980,50,-5,HANSON
MA,02343,42.143757,-71.003207,120,-5,HOLBROOK
MA,02344,41.893400,-70.911700,50,-5,MIDDLEBORO
MA,02345,41.897500,-70.542600,50,-5,MANOMET
MA,02346,41.882196,-70.879797,50,-5,MIDDLEBORO
MA,02347,41.840960,-70.956121,50,-5,LAKEVILLE
MA,02348,41.893400,-70.911700,50,-5,LAKEVILLE
MA,02349,41.893400,-70.911700,50,-5,MIDDLEBORO
MA,02350,42.017000,-70.849900,50,-5,MONPONSETT
MA,02351,42.119377,-70.959396,50,-5,ABINGTON
MA,02355,41.927200,-70.751600,50,-5,NORTH CARVER
MA,02356,42.054402,-71.121102,30,-5,NORTH EASTON
MA,02357,42.059326,-71.079370,30,-5,NORTH EASTON
MA,02358,42.102400,-70.773900,50,-5,NORTH PEMBROKE
MA,02359,42.064865,-70.798555,50,-5,PEMBROKE
MA,02360,41.873369,-70.639662,50,-5,PLYMOUTH
MA,02361,41.958300,-70.667500,50,-5,PLYMOUTH
MA,02362,41.958300,-70.667500,50,-5,PLYMOUTH
MA,02364,41.978084,-70.746086,50,-5,KINGSTON
MA,02366,41.853840,-70.655726,50,-5,SOUTH CARVER
MA,02367,41.971449,-70.810876,50,-5,PLYMPTON
MA,02368,42.170254,-71.061724,120,-5,RANDOLPH
MA,02370,42.128818,-70.912354,50,-5,ROCKLAND
MA,02375,42.025622,-71.108428,30,-5,SOUTH EASTON
MA,02379,42.017525,-71.023459,50,-5,WEST BRIDGEWATER
MA,02381,41.931700,-70.560000,50,-5,WHITE HORSE BEACH
MA,02382,42.081178,-70.939436,50,-5,WHITMAN
MA,02420,42.457706,-71.216824,40,-5,LEXINGTON
MA,02421,42.443014,-71.234851,40,-5,LEXINGTON
MA,02445,42.322072,-71.131290,120,-5,BROOKLINE
MA,02446,42.343335,-71.122762,120,-5,BROOKLINE
MA,02447,42.333600,-71.123700,120,-5,BROOKLINE VILLAGE
MA,02451,42.397322,-71.259369,40,-5,WALTHAM
MA,02452,42.394783,-71.216868,40,-5,WALTHAM
MA,02453,42.369984,-71.232748,40,-5,WALTHAM
MA,02454,42.376700,-71.236300,40,-5,WALTHAM
MA,02455,42.358600,-71.060500,40,-5,NORTH WALTHAM
MA,02456,42.360100,-71.130800,40,-5,NEW TOWN
MA,02457,42.298800,-71.260100,120,-5,BABSON PARK
MA,02458,42.353420,-71.183562,40,-5,NEWTON
MA,02459,42.312221,-71.194700,40,-5,NEWTON CENTER
MA,02460,42.352287,-71.207258,40,-5,NEWTONVILLE
MA,02461,42.314007,-71.208480,40,-5,NEWTON HIGHLANDS
MA,02462,42.331170,-71.256202,40,-5,NEWTON LOWER FALLS
MA,02464,42.313194,-71.218719,40,-5,NEWTON UPPER FALLS
MA,02465,42.350429,-71.225614,40,-5,WEST NEWTON
MA,02466,42.345080,-71.247189,40,-5,AUBURNDALE
MA,02467,42.318788,-71.156990,40,-5,CHESTNUT HILL
MA,02468,42.326539,-71.231852,40,-5,WABAN
MA,02471,42.370800,-71.183300,40,-5,WATERTOWN
MA,02472,42.372094,-71.178567,40,-5,WATERTOWN
MA,02474,42.417192,-71.161109,40,-5,ARLINGTON
MA,02475,42.428800,-71.149400,40,-5,ARLINGTON HEIGHTS
MA,02476,42.415132,-71.176620,40,-5,ARLINGTON
MA,02477,42.370800,-71.183300,40,-5,WATERTOWN
MA,02478,42.395500,-71.182105,40,-5,BELMONT
MA,02479,42.420200,-71.201900,40,-5,WAVERLEY
MA,02481,42.309348,-71.272442,120,-5,WELLESLEY HILLS
MA,02482,42.293500,-71.299285,120,-5,WELLESLEY
MA,02492,42.277716,-71.244942,120,-5,NEEDHAM
MA,02493,42.357814,-71.295386,40,-5,WESTON
MA,02494,42.299724,-71.229804,120,-5,NEEDHAM HEIGHTS
MA,02495,42.336700,-71.209400,40,-5,NONANTUM
MA,02532,41.727207,-70.587977,37,-5,BUZZARDS BAY
MA,02534,41.666811,-70.617634,37,-5,CATAUMET
MA,02535,41.328156,-70.744782,17,-5,CHILMARK
MA,02536,41.599718,-70.562314,37,-5,EAST FALMOUTH
MA,02537,41.729997,-70.436664,37,-5,EAST SANDWICH
MA,02538,41.771860,-70.648056,50,-5,EAST WAREHAM
MA,02539,41.384969,-70.530625,17,-5,EDGARTOWN
MA,02540,41.578251,-70.625140,37,-5,FALMOUTH
MA,02541,41.551600,-70.615600,37,-5,FALMOUTH
MA,02542,41.659229,-70.552098,37,-5,BUZZARDS BAY
MA,02543,41.528153,-70.663642,37,-5,WOODS HOLE
MA,02552,41.364800,-70.751500,17,-5,MENEMSHA
MA,02553,41.714100,-70.614700,37,-5,MONUMENT BEACH
MA,02554,41.315734,-70.119656,30,-5,NANTUCKET
MA,02556,41.638244,-70.627712,37,-5,NORTH FALMOUTH
MA,02557,41.445100,-70.564700,17,-5,OAK BLUFFS
MA,02558,41.747224,-70.654436,50,-5,ONSET
MA,02559,41.687945,-70.622408,37,-5,POCASSET
MA,02561,41.772000,-70.536600,37,-5,SAGAMORE
MA,02562,41.792226,-70.518358,37,-5,SAGAMORE BEACH
MA,02563,41.719620,-70.477866,37,-5,SANDWICH
MA,02564,41.262300,-69.966800,30,-5,SIASCONSET
MA,02568,41.414904,-70.630790,17,-5,VINEYARD HAVEN
MA,02571,41.766592,-70.700716,50,-5,WAREHAM
MA,02574,41.605900,-70.645900,37,-5,WEST FALMOUTH
MA,02575,41.396092,-70.640244,17,-5,WEST TISBURY
MA,02576,41.773512,-70.767770,50,-5,WEST WAREHAM
MA,02584,41.283600,-70.100200,30,-5,NANTUCKET
MA,02601,41.656828,-70.293756,37,-5,HYANNIS
MA,02630,41.696560,-70.295362,37,-5,BARNSTABLE
MA,02631,41.746943,-70.069488,37,-5,BREWSTER
MA,02632,41.657055,-70.347382,37,-5,CENTERVILLE
MA,02633,41.688917,-69.979888,37,-5,CHATHAM
MA,02634,41.648700,-70.348600,37,-5,CENTERVILLE
MA,02635,41.622297,-70.436060,37,-5,COTUIT
MA,02637,41.699100,-70.277700,37,-5,CUMMAQUID
MA,02638,41.734252,-70.198173,37,-5,DENNIS
MA,02639,41.670696,-70.137566,37,-5,DENNIS PORT
MA,02641,41.748600,-70.164900,37,-5,EAST DENNIS
MA,02642,41.837645,-69.975125,37,-5,EASTHAM
MA,02643,41.796600,-69.956800,37,-5,EAST ORLEANS
MA,02644,41.693166,-70.517618,37,-5,FORESTDALE
MA,02645,41.702193,-70.062880,37,-5,HARWICH
MA,02646,41.672796,-70.069212,37,-5,HARWICH PORT
MA,02647,41.635079,-70.307345,37,-5,HYANNIS PORT
MA,02648,41.670439,-70.413412,37,-5,MARSTONS MILLS
MA,02649,41.617175,-70.492455,37,-5,MASHPEE
MA,02650,41.703390,-69.966802,37,-5,NORTH CHATHAM
MA,02651,41.847700,-70.004200,37,-5,NORTH EASTHAM
MA,02652,42.043244,-70.103584,37,-5,NORTH TRURO
MA,02653,41.748664,-69.974607,37,-5,ORLEANS
MA,02655,41.635799,-70.391091,37,-5,OSTERVILLE
MA,02657,42.050907,-70.196323,37,-5,PROVINCETOWN
MA,02659,41.683908,-70.022303,37,-5,SOUTH CHATHAM
MA,02660,41.713662,-70.155420,37,-5,SOUTH DENNIS
MA,02661,41.676199,-70.039702,37,-5,SOUTH HARWICH
MA,02662,41.756700,-69.993800,37,-5,SOUTH ORLEANS
MA,02663,41.919600,-69.997100,37,-5,SOUTH WELLFLEET
MA,02664,41.671128,-70.193735,37,-5,SOUTH YARMOUTH
MA,02666,41.998127,-70.040339,37,-5,TRURO
MA,02667,41.933858,-70.018763,37,-5,WELLFLEET
MA,02668,41.708108,-70.345734,37,-5,WEST BARNSTABLE
MA,02669,41.670312,-69.992893,37,-5,WEST CHATHAM
MA,02670,41.660756,-70.171358,37,-5,WEST DENNIS
MA,02671,41.670829,-70.111338,37,-5,WEST HARWICH
MA,02672,41.635254,-70.319201,37,-5,WEST HYANNISPORT
MA,02673,41.648566,-70.241470,37,-5,WEST YARMOUTH
MA,02675,41.707586,-70.229984,37,-5,YARMOUTH PORT
MA,02702,41.785280,-71.066659,30,-5,ASSONET
MA,02703,41.938267,-71.294158,30,-5,ATTLEBORO
MA,02712,41.948800,-71.226600,30,-5,CHARTLEY
MA,02713,41.465688,-70.812907,17,-5,CUTTYHUNK
MA,02714,41.576600,-71.010600,30,-5,DARTMOUTH
MA,02715,41.816920,-71.153046,30,-5,DIGHTON
MA,02717,41.752600,-70.981486,30,-5,EAST FREETOWN
MA,02718,41.867286,-71.015712,30,-5,EAST TAUNTON
MA,02719,41.631336,-70.867055,30,-5,FAIRHAVEN
MA,02720,41.731620,-71.109006,30,-5,FALL RIVER
MA,02721,41.668285,-71.148002,30,-5,FALL RIVER
MA,02722,41.701400,-71.155800,30,-5,FALL RIVER
MA,02723,41.693094,-71.130534,30,-5,FALL RIVER
MA,02724,41.686912,-71.180238,30,-5,FALL RIVER
MA,02725,41.723498,-71.175562,30,-5,SOMERSET
MA,02726,41.757258,-71.150943,30,-5,SOMERSET
MA,02738,41.718104,-70.760418,50,-5,MARION
MA,02739,41.664798,-70.810768,50,-5,MATTAPOISETT
MA,02740,41.632164,-70.940609,30,-5,NEW BEDFORD
MA,02741,41.636300,-70.934700,30,-5,NEW BEDFORD
MA,02742,41.636300,-70.934700,30,-5,NEW BEDFORD
MA,02743,41.713840,-70.899388,30,-5,ACUSHNET
MA,02744,41.609164,-70.915838,30,-5,NEW BEDFORD
MA,02745,41.712357,-70.949081,30,-5,NEW BEDFORD
MA,02746,41.662980,-70.944832,30,-5,NEW BEDFORD
MA,02747,41.652628,-71.009691,30,-5,NORTH DARTMOUTH
MA,02748,41.561034,-70.981043,30,-5,SOUTH DARTMOUTH
MA,02760,41.965624,-71.325271,30,-5,NORTH ATTLEBORO
MA,02761,41.983400,-71.333600,30,-5,NORTH ATTLEBORO
MA,02762,42.014750,-71.333826,120,-5,PLAINVILLE
MA,02763,41.972565,-71.307299,30,-5,ATTLEBORO FALLS
MA,02764,41.855956,-71.155120,30,-5,NORTH DIGHTON
MA,02766,41.955916,-71.177850,30,-5,NORTON
MA,02767,41.938566,-71.058468,30,-5,RAYNHAM
MA,02768,41.923700,-71.052600,30,-5,RAYNHAM CENTER
MA,02769,41.843192,-71.244624,30,-5,REHOBOTH
MA,02770,41.752693,-70.846600,50,-5,ROCHESTER
MA,02771,41.840137,-71.318813,30,-5,SEEKONK
MA,02777,41.753177,-71.234200,30,-5,SWANSEA
MA,02779,41.825889,-71.070392,30,-5,BERKLEY
MA,02780,41.909886,-71.118924,30,-5,TAUNTON
MA,02783,41.905800,-71.105600,30,-5,TAUNTON
MA,02790,41.611414,-71.081786,30,-5,WESTPORT
MA,02791,41.522000,-71.075100,30,-5,WESTPORT POINT
RI,02801,41.554400,-71.131400,96,-5,ADAMSVILLE
RI,02802,41.951400,-71.455100,11,-5,ALBION
RI,02804,41.435056,-71.762348,90,-5,ASHAWAY
RI,02806,41.741936,-71.319225,30,-5,BARRINGTON
RI,02807,41.189200,-71.578613,90,-5,BLOCK ISLAND
RI,02808,41.410268,-71.742223,90,-5,BRADFORD
RI,02809,41.678546,-71.271001,30,-5,BRISTOL
RI,02812,41.474846,-71.658556,90,-5,CAROLINA
RI,02813,41.395890,-71.662973,90,-5,CHARLESTOWN
RI,02814,41.905258,-71.687440,11,-5,CHEPACHET
RI,02815,41.770702,-71.665542,11,-5,CLAYVILLE
RI,02816,41.693331,-71.636343,61,-5,COVENTRY
RI,02817,41.629228,-71.665956,61,-5,WEST GREENWICH
RI,02818,41.643752,-71.477766,61,-5,EAST GREENWICH
RI,02822,41.553180,-71.652698,90,-5,EXETER
RI,02823,41.734500,-71.548800,11,-5,FISKEVILLE
RI,02824,41.945800,-71.700400,11,-5,FORESTDALE
RI,02825,41.790296,-71.694827,11,-5,FOSTER
RI,02826,41.976200,-71.633200,11,-5,GLENDALE
RI,02827,41.691646,-71.727178,61,-5,GREENE
RI,02828,41.881356,-71.553282,11,-5,GREENVILLE
RI,02829,41.887500,-71.597500,11,-5,HARMONY
RI,02830,41.972358,-71.647410,11,-5,HARRISVILLE
RI,02831,41.750858,-71.588708,11,-5,HOPE
RI,02832,41.501408,-71.728853,90,-5,HOPE VALLEY
RI,02833,41.479449,-71.775204,90,-5,HOPKINTON
RI,02835,41.511087,-71.371733,96,-5,JAMESTOWN
RI,02836,41.448280,-71.621769,90,-5,KENYON
RI,02837,41.508570,-71.164533,96,-5,LITTLE COMPTON
RI,02838,41.965252,-71.471228,11,-5,MANVILLE
RI,02839,41.942189,-71.635123,11,-5,MAPLEVILLE
RI,02840,41.485043,-71.324470,96,-5,NEWPORT
RI,02841,41.528484,-71.316242,96,-5,NEWPORT
RI,02842,41.517342,-71.271916,96,-5,MIDDLETOWN
RI,02852,41.588050,-71.462020,90,-5,NORTH KINGSTOWN
RI,02857,41.823378,-71.643826,11,-5,NORTH SCITUATE
RI,02858,41.964108,-71.653373,11,-5,OAKLAND
RI,02859,41.965405,-71.721682,11,-5,PASCOAG
RI,02860,41.875246,-71.394510,11,-5,PAWTUCKET
RI,02861,41.878320,-71.353902,11,-5,PAWTUCKET
RI,02862,41.878700,-71.383200,11,-5,PAWTUCKET
RI,02863,41.890756,-71.394154,11,-5,CENTRAL FALLS
RI,02864,41.956004,-71.433618,11,-5,CUMBERLAND
RI,02865,41.919332,-71.442985,11,-5,LINCOLN
RI,02871,41.585358,-71.257410,96,-5,PORTSMOUTH
RI,02872,41.622586,-71.334696,30,-5,PRUDENCE ISLAND
RI,02873,41.509400,-71.784300,90,-5,ROCKVILLE
RI,02874,41.518623,-71.466928,90,-5,SAUNDERSTOWN
RI,02875,41.455855,-71.638788,90,-5,SHANNOCK
RI,02876,42.003300,-71.585500,11,-5,SLATERSVILLE
RI,02877,41.538082,-71.532386,90,-5,SLOCUM
RI,02878,41.609222,-71.174456,96,-5,TIVERTON
RI,02879,41.427650,-71.536358,90,-5,WAKEFIELD
RI,02880,41.437400,-71.501600,90,-5,WAKEFIELD
RI,02881,41.480326,-71.518988,90,-5,KINGSTON
RI,02882,41.426821,-71.466190,90,-5,NARRAGANSETT
RI,02883,41.452900,-71.499000,90,-5,PEACE DALE
RI,02885,41.729952,-71.258190,30,-5,WARREN
RI,02886,41.705329,-71.460974,61,-5,WARWICK
RI,02887,41.691800,-71.379500,61,-5,WARWICK
RI,02888,41.748620,-71.411632,61,-5,WARWICK
RI,02889,41.701210,-71.392476,61,-5,WARWICK
RI,02891,41.361477,-71.802414,90,-5,WESTERLY
RI,02892,41.510330,-71.590570,90,-5,WEST KINGSTON
RI,02893,41.697270,-71.509664,61,-5,WEST WARWICK
RI,02894,41.462121,-71.701692,90,-5,WOOD RIVER JUNCTION
RI,02895,41.997922,-71.498851,11,-5,WOONSOCKET
RI,02896,41.974748,-71.545054,11,-5,NORTH SMITHFIELD
RI,02898,41.522184,-71.669790,90,-5,WYOMING
RI,02901,41.823800,-71.413300,11,-5,PROVIDENCE
RI,02902,41.823800,-71.413300,11,-5,PROVIDENCE
RI,02903,41.818167,-71.409728,11,-5,PROVIDENCE
RI,02904,41.854638,-71.437492,11,-5,PROVIDENCE
RI,02905,41.786946,-71.399192,11,-5,PROVIDENCE
RI,02906,41.838150,-71.393139,11,-5,PROVIDENCE
RI,02907,41.795126,-71.424764,11,-5,PROVIDENCE
RI,02908,41.839296,-71.438804,11,-5,PROVIDENCE
RI,02909,41.822232,-71.448292,11,-5,PROVIDENCE
RI,02910,41.776088,-71.434314,11,-5,CRANSTON
RI,02911,41.853544,-71.472467,11,-5,NORTH PROVIDENCE
RI,02912,41.826254,-71.402502,11,-5,PROVIDENCE
RI,02914,41.811429,-71.363076,11,-5,EAST PROVIDENCE
RI,02915,41.776856,-71.350262,11,-5,RIVERSIDE
RI,02916,41.842966,-71.355321,11,-5,RUMFORD
RI,02917,41.903624,-71.528881,11,-5,SMITHFIELD
RI,02918,41.844266,-71.434916,11,-5,PROVIDENCE
RI,02919,41.827850,-71.518132,11,-5,JOHNSTON
RI,02920,41.768472,-71.468460,11,-5,CRANSTON
RI,02921,41.761729,-71.517696,11,-5,CRANSTON
RI,02940,41.823800,-71.413300,11,-5,PROVIDENCE
NH,03031,42.869612,-71.611033,169,-5,AMHERST
NH,03032,42.988876,-71.345832,58,-5,AUBURN
NH,03033,42.749144,-71.673254,169,-5,BROOKLINE
NH,03034,43.070868,-71.312028,58,-5,CANDIA
NH,03036,42.970678,-71.239531,58,-5,CHESTER
NH,03037,43.147942,-71.248659,58,-5,DEERFIELD
NH,03038,42.890934,-71.276314,58,-5,DERRY
NH,03040,43.048400,-71.249300,58,-5,EAST CANDIA
NH,03041,42.894600,-71.291700,58,-5,EAST DERRY
NH,03042,43.048367,-71.080035,58,-5,EPPING
NH,03043,42.995706,-71.816523,169,-5,FRANCESTOWN
NH,03044,42.990024,-71.129684,58,-5,FREMONT
NH,03045,43.020926,-71.570426,169,-5,GOFFSTOWN
NH,03046,43.106693,-71.589231,288,-5,DUNBARTON
NH,03047,42.941928,-71.874975,169,-5,GREENFIELD
NH,03048,42.751118,-71.761631,169,-5,GREENVILLE
NH,03049,42.752872,-71.583438,169,-5,HOLLIS
NH,03051,42.761768,-71.412573,169,-5,HUDSON
NH,03052,42.850204,-71.454862,169,-5,LITCHFIELD
NH,03053,42.873066,-71.390857,58,-5,LONDONDERRY
NH,03054,42.851797,-71.514782,169,-5,MERRIMACK
NH,03055,42.819477,-71.667999,169,-5,MILFORD
NH,03057,42.899185,-71.688248,169,-5,MONT VERNON
NH,03060,42.734521,-71.462396,169,-5,NASHUA
NH,03061,42.765600,-71.468200,169,-5,NASHUA
NH,03062,42.730416,-71.494756,169,-5,NASHUA
NH,03063,42.771339,-71.526960,169,-5,NASHUA
NH,03064,42.782582,-71.472035,169,-5,NASHUA
NH,03070,42.975939,-71.681414,169,-5,NEW BOSTON
NH,03071,42.751572,-71.870917,169,-5,NEW IPSWICH
NH,03073,42.836800,-71.221300,58,-5,NORTH SALEM
NH,03076,42.741088,-71.316056,169,-5,PELHAM
NH,03077,43.032011,-71.196046,58,-5,RAYMOND
NH,03079,42.794954,-71.225568,58,-5,SALEM
NH,03082,42.904431,-71.777397,169,-5,LYNDEBOROUGH
NH,03084,42.835160,-71.862470,169,-5,TEMPLE
NH,03086,42.829678,-71.775700,169,-5,WILTON
NH,03087,42.805495,-71.301507,58,-5,WINDHAM
NH,03101,42.988367,-71.465548,169,-5,MANCHESTER
NH,03102,43.007972,-71.494555,169,-5,MANCHESTER
NH,03103,42.940893,-71.444068,169,-5,MANCHESTER
NH,03104,43.015401,-71.436151,169,-5,MANCHESTER
NH,03105,42.995600,-71.455600,169,-5,MANCHESTER
NH,03106,43.065957,-71.437200,288,-5,HOOKSETT
NH,03108,42.995600,-71.455600,169,-5,MANCHESTER
NH,03109,42.969391,-71.404463,169,-5,MANCHESTER
NH,03110,42.939248,-71.534653,169,-5,BEDFORD
NH,03111,42.995600,-71.455600,169,-5,MANCHESTER
NH,03215,43.946288,-71.465305,157,-5,WATERVILLE VALLEY
NH,03216,43.446677,-71.796082,288,-5,ANDOVER
NH,03217,43.724892,-71.613234,157,-5,ASHLAND
NH,03218,43.311920,-71.248688,507,-5,BARNSTEAD
NH,03220,43.463234,-71.470834,507,-5,BELMONT
NH,03221,43.236410,-71.960202,288,-5,BRADFORD
NH,03222,43.618010,-71.780073,157,-5,BRISTOL
NH,03223,43.974170,-71.580686,157,-5,CAMPTON
NH,03224,43.354281,-71.552026,288,-5,CANTERBURY
NH,03225,43.359208,-71.235050,507,-5,CENTER BARNSTEAD
NH,03226,43.707722,-71.494429,507,-5,CENTER HARBOR
NH,03227,43.834294,-71.447688,581,-5,CENTER SANDWICH
NH,03229,43.199734,-71.691493,288,-5,CONTOOCOOK
NH,03230,43.532163,-71.851640,288,-5,DANBURY
NH,03231,43.478300,-71.764600,288,-5,EAST ANDOVER
NH,03233,43.440729,-71.952829,288,-5,ELKINS
NH,03234,43.216107,-71.341322,288,-5,EPSOM
NH,03235,43.447034,-71.675624,288,-5,FRANKLIN
NH,03237,43.431766,-71.394660,507,-5,GILMANTON
NH,03238,43.982500,-71.893900,157,-5,GLENCLIFF
NH,03240,43.576671,-71.966769,157,-5,GRAFTON
NH,03241,43.721684,-71.833959,157,-5,HEBRON
NH,03242,43.169199,-71.821200,288,-5,HENNIKER
NH,03243,43.529346,-71.755619,288,-5,HILL
NH,03244,43.119581,-71.929596,169,-5,HILLSBOROUGH
NH,03245,43.744340,-71.598562,157,-5,HOLDERNESS
NH,03246,43.565499,-71.481549,507,-5,LACONIA
NH,03247,43.547800,-71.407400,507,-5,LACONIA
NH,03249,43.560930,-71.358206,507,-5,GILFORD
NH,03251,44.089538,-71.585380,157,-5,LINCOLN
NH,03252,43.471200,-71.530800,507,-5,LOCHMERE
NH,03253,43.617700,-71.478163,507,-5,MEREDITH
NH,03254,43.705374,-71.388998,581,-5,MOULTONBOROUGH
NH,03255,43.322681,-72.006469,288,-5,NEWBURY
NH,03256,43.614969,-71.619971,507,-5,NEW HAMPTON
NH,03257,43.420142,-71.985132,288,-5,NEW LONDON
NH,03258,43.257332,-71.401446,288,-5,CHICHESTER
NH,03259,43.866244,-71.401060,581,-5,NORTH SANDWICH
NH,03260,43.358426,-71.919810,288,-5,NORTH SUTTON
NH,03261,43.220476,-71.204444,58,-5,NORTHWOOD
NH,03262,44.023488,-71.732710,157,-5,NORTH WOODSTOCK
NH,03263,43.306404,-71.307016,288,-5,PITTSFIELD
NH,03264,43.721736,-71.684435,157,-5,PLYMOUTH
NH,03266,43.811561,-71.883800,157,-5,RUMNEY
NH,03268,43.380666,-71.729532,288,-5,SALISBURY
NH,03269,43.537378,-71.603022,507,-5,SANBORNTON
NH,03272,43.295600,-71.997400,288,-5,SOUTH NEWBURY
NH,03273,43.308368,-71.916518,288,-5,SOUTH SUTTON
NH,03275,43.169076,-71.410731,288,-5,SUNCOOK
NH,03276,43.432029,-71.568484,507,-5,TILTON
NH,03278,43.305561,-71.873398,288,-5,WARNER
NH,03279,43.941936,-71.876458,157,-5,WARREN
NH,03280,43.183888,-72.093824,797,-5,WASHINGTON
NH,03281,43.084510,-71.722270,169,-5,WEARE
NH,03282,43.867055,-71.949047,157,-5,WENTWORTH
NH,03284,43.490418,-72.023540,797,-5,SPRINGFIELD
NH,03285,43.951748,-71.621646,157,-5,THORNTON
NH,03287,43.441760,-71.924811,288,-5,WILMOT
NH,03289,43.501500,-71.512700,507,-5,WINNISQUAM
NH,03290,43.127378,-71.120626,58,-5,NOTTINGHAM
NH,03291,43.141561,-71.129738,58,-5,WEST NOTTINGHAM
NH,03293,43.977800,-71.685800,157,-5,WOODSTOCK
NH,03298,43.629000,-71.493700,507,-5,TILTON
NH,03299,43.629000,-71.493700,507,-5,TILTON
NH,03301,43.230539,-71.547977,288,-5,CONCORD
NH,03302,43.208400,-71.538100,288,-5,CONCORD
NH,03303,43.301354,-71.677846,288,-5,CONCORD
NH,03304,43.129110,-71.542444,288,-5,BOW
NH,03305,43.208400,-71.538100,288,-5,CONCORD
NH,03307,43.321454,-71.441464,288,-5,LOUDON
NH,03431,42.976078,-72.276523,487,-5,KEENE
NH,03435,42.933700,-72.279400,487,-5,KEENE
NH,03440,43.060054,-71.983578,169,-5,ANTRIM
NH,03441,42.796992,-72.435504,487,-5,ASHUELOT
NH,03442,43.018146,-71.908970,169,-5,BENNINGTON
NH,03443,42.889321,-72.451866,487,-5,CHESTERFIELD
NH,03444,42.893094,-72.071884,487,-5,DUBLIN
NH,03445,43.011137,-72.217028,487,-5,SULLIVAN
NH,03446,42.854928,-72.289486,487,-5,SWANZEY
NH,03447,42.763853,-72.138326,487,-5,FITZWILLIAM
NH,03448,43.033614,-72.248706,487,-5,GILSUM
NH,03449,42.975414,-71.996236,169,-5,HANCOCK
NH,03450,42.948505,-72.083544,487,-5,HARRISVILLE
NH,03451,42.792334,-72.501135,487,-5,HINSDALE
NH,03452,42.831569,-72.058670,487,-5,JAFFREY
NH,03455,42.908073,-72.171202,487,-5,MARLBOROUGH
NH,03456,43.126062,-72.174496,487,-5,MARLOW
NH,03457,43.006406,-72.118570,487,-5,NELSON
NH,03458,42.875234,-71.939730,169,-5,PETERBOROUGH
NH,03461,42.753053,-71.983024,487,-5,RINDGE
NH,03462,42.892796,-72.403298,487,-5,SPOFFORD
NH,03464,43.073046,-72.117453,487,-5,STODDARD
NH,03465,42.831982,-72.189194,487,-5,TROY
NH,03466,42.894234,-72.512886,487,-5,WEST CHESTERFIELD
NH,03467,42.973622,-72.443608,487,-5,WESTMORELAND
NH,03468,42.887200,-71.985600,169,-5,WEST PETERBOROUGH
NH,03469,42.860200,-72.314600,487,-5,WEST SWANZEY
NH,03470,42.785358,-72.332757,487,-5,WINCHESTER
NH,03561,44.339116,-71.812580,157,-5,LITTLETON
NH,03570,44.454995,-71.260730,887,-5,BERLIN
NH,03574,44.252772,-71.603568,157,-5,BETHLEHEM
NH,03575,44.258200,-71.441900,887,-5,BRETTON WOODS
NH,03576,44.896400,-71.395440,887,-5,COLEBROOK
NH,03579,44.781274,-71.181857,887,-5,ERROL
ME,03579,44.781274,-71.181857,887,-5,ERROL
NH,03580,44.176082,-71.671044,157,-5,FRANCONIA
NH,03581,44.394966,-71.131572,887,-5,GORHAM
NH,03582,44.588774,-71.439562,887,-5,NORTHUMBERLAND
NH,03582,44.588774,-71.439562,887,-5,GROVETON
NH,03583,44.396893,-71.433988,887,-5,JEFFERSON
NH,03584,44.500107,-71.544682,887,-5,LANCASTER
NH,03585,44.213816,-71.890048,157,-5,LISBON
NH,03586,44.220070,-71.801762,157,-5,SUGAR HILL
NH,03588,44.574055,-71.194828,887,-5,MILAN
NH,03589,44.285464,-71.297867,887,-5,MOUNT WASHINGTON
NH,03590,44.724536,-71.478154,887,-5,NORTH STRATFORD
NH,03592,45.130172,-71.280552,887,-5,PITTSBURG
NH,03593,44.373208,-71.291620,887,-5,RANDOLPH
NH,03595,44.284763,-71.503365,887,-5,TWIN MOUNTAIN
NH,03597,44.995500,-71.531800,887,-5,WEST STEWARTSTOWN
NH,03598,44.328802,-71.571167,887,-5,WHITEFIELD
NH,03601,43.235372,-72.295949,797,-5,ACWORTH
NH,03602,43.129196,-72.328470,487,-5,ALSTEAD
NH,03603,43.247994,-72.376191,797,-5,CHARLESTOWN
NH,03604,43.128100,-72.392800,487,-5,DREWSVILLE
NH,03605,43.230467,-72.241716,797,-5,LEMPSTER
NH,03607,43.189457,-72.285396,797,-5,SOUTH ACWORTH
NH,03608,43.074774,-72.406308,487,-5,WALPOLE
NH,03609,43.140715,-72.436767,487,-5,NORTH WALPOLE
NH,03740,44.176708,-71.989437,157,-5,BATH
NH,03741,43.673746,-72.017378,157,-5,CANAAN
NH,03743,43.346392,-72.329870,797,-5,CLAREMONT
NH,03745,43.472002,-72.328270,797,-5,CORNISH
NH,03746,43.497300,-72.280000,797,-5,CORNISH FLAT
NH,03748,43.617534,-72.114808,157,-5,ENFIELD
NH,03749,43.590300,-72.111700,157,-5,ENFIELD CENTER
NH,03750,43.713165,-72.208081,157,-5,ETNA
NH,03751,43.443099,-72.085940,797,-5,GEORGES MILLS
NH,03752,43.294629,-72.112866,797,-5,GOSHEN
NH,03753,43.507164,-72.140142,797,-5,GRANTHAM
NH,03754,43.376900,-72.138800,797,-5,GUILD
NH,03755,43.716069,-72.197482,157,-5,HANOVER
NH,03756,43.702900,-72.289500,157,-5,LEBANON
NH,03765,44.038149,-72.053750,157,-5,HAVERHILL
NH,03766,43.635020,-72.231933,157,-5,LEBANON
NH,03768,43.822120,-72.116288,157,-5,LYME
NH,03769,43.799500,-72.123400,157,-5,LYME CENTER
NH,03770,43.529578,-72.273968,797,-5,MERIDEN
NH,03771,44.274311,-71.998977,157,-5,MONROE
NH,03773,43.374889,-72.193528,797,-5,NEWPORT
NH,03774,44.087152,-71.986776,157,-5,NORTH HAVERHILL
NH,03777,43.897671,-72.059934,157,-5,ORFORD
NH,03779,43.972213,-72.037981,157,-5,PIERMONT
NH,03780,44.034416,-71.977410,157,-5,PIKE
NH,03781,43.536563,-72.283530,797,-5,PLAINFIELD
NH,03782,43.384718,-72.087607,797,-5,SUNAPEE
NH,03784,43.645133,-72.293325,157,-5,WEST LEBANON
NH,03785,44.083606,-71.900509,157,-5,WOODSVILLE
NH,03801,43.067485,-70.799837,58,-5,PORTSMOUTH
NH,03802,43.071900,-70.763200,58,-5,PORTSMOUTH
NH,03803,43.071900,-70.763200,58,-5,PORTSMOUTH
NH,03804,43.071900,-70.763200,58,-5,PORTSMOUTH
NH,03809,43.473886,-71.232508,507,-5,ALTON
NH,03810,43.505872,-71.274232,507,-5,ALTON BAY
NH,03811,42.839256,-71.161078,58,-5,ATKINSON
NH,03812,44.118560,-71.282343,581,-5,BARTLETT
NH,03813,44.056045,-71.053751,581,-5,CENTER CONWAY
NH,03813,44.056045,-71.053751,581,-5,CHATHAM
ME,03813,44.056045,-71.053751,581,-5,CENTER CONWAY
ME,03813,44.056045,-71.053751,581,-5,CHATHAM
NH,03814,43.771493,-71.156069,581,-5,CENTER OSSIPEE
NH,03815,43.264863,-71.106932,0,-5,CENTER STRAFFORD
NH,03816,43.702431,-71.257197,581,-5,CENTER TUFTONBORO
NH,03817,43.879702,-71.229114,581,-5,CHOCORUA
NH,03818,43.966632,-71.236342,581,-5,CONWAY
NH,03819,42.927822,-71.121202,58,-5,DANVILLE
NH,03820,43.187031,-70.894520,0,-5,DOVER
NH,03821,43.192100,-70.880400,0,-5,DOVER
NH,03822,43.197900,-70.874500,0,-5,DOVER
NH,03823,43.168910,-70.930946,0,-5,MADBURY
NH,03824,43.122170,-70.922457,0,-5,DURHAM
NH,03825,43.210674,-71.049228,0,-5,BARRINGTON
NH,03826,42.886457,-71.119160,58,-5,EAST HAMPSTEAD
NH,03827,42.911426,-70.974654,58,-5,SOUTH HAMPTON
NH,03827,42.911426,-70.974654,58,-5,EAST KINGSTON
NH,03830,43.641056,-70.999979,581,-5,EAST WAKEFIELD
NH,03832,43.909399,-71.046855,581,-5,EATON CENTER
NH,03833,42.961445,-70.987972,58,-5,EXETER
NH,03835,43.362176,-71.074979,0,-5,FARMINGTON
NH,03836,43.830852,-71.086490,581,-5,FREEDOM
NH,03837,43.418512,-71.306290,507,-5,GILMANTON IRON WORKS
NH,03838,44.101142,-71.181214,581,-5,GLEN
NH,03839,43.257062,-70.983824,0,-5,ROCHESTER
NH,03840,43.032582,-70.850056,58,-5,GREENLAND
NH,03841,42.882721,-71.176319,58,-5,HAMPSTEAD
NH,03842,42.933704,-70.842691,58,-5,HAMPTON
NH,03843,42.928400,-70.856600,58,-5,HAMPTON
NH,03844,42.931988,-70.874585,58,-5,HAMPTON FALLS
NH,03845,44.175944,-71.097862,581,-5,INTERVALE
NH,03846,44.182909,-71.203438,581,-5,JACKSON
NH,03847,44.075600,-71.118200,581,-5,KEARSARGE
NH,03848,42.910350,-71.061621,58,-5,KINGSTON
NH,03849,43.903793,-71.101791,581,-5,MADISON
NH,03850,43.688700,-71.304900,581,-5,MELVIN VILLAGE
NH,03851,43.440423,-71.023648,0,-5,MILTON
NH,03852,43.509859,-70.976413,0,-5,MILTON MILLS
NH,03853,43.639854,-71.292992,581,-5,MIRROR LAKE
NH,03854,43.064182,-70.722702,58,-5,NEW CASTLE
NH,03855,43.464286,-71.144355,0,-5,NEW DURHAM
NH,03856,43.036983,-70.964427,58,-5,NEWFIELDS
NH,03857,43.068918,-70.951889,58,-5,NEWMARKET
NH,03858,42.865368,-71.042977,58,-5,NEWTON
NH,03859,42.867200,-71.066600,58,-5,NEWTON JUNCTION
NH,03860,44.028000,-71.088333,581,-5,NORTH CONWAY
NH,03861,43.126468,-71.013397,0,-5,LEE
NH,03862,42.979401,-70.829484,58,-5,NORTH HAMPTON
NH,03864,43.692116,-71.113188,581,-5,OSSIPEE
NH,03865,42.842810,-71.094632,58,-5,PLAISTOW
NH,03866,43.275600,-70.989100,0,-5,ROCHESTER
NH,03867,43.301315,-70.992932,0,-5,ROCHESTER
NH,03868,43.345266,-70.945629,0,-5,ROCHESTER
NH,03869,43.220254,-70.841662,0,-5,ROLLINSFORD
NH,03870,43.013160,-70.713103,58,-5,RYE
NH,03871,42.976800,-70.766400,58,-5,RYE BEACH
NH,03872,43.584992,-71.038237,581,-5,SANBORNVILLE
NH,03873,42.930898,-71.184447,58,-5,SANDOWN
NH,03874,42.883886,-70.865663,58,-5,SEABROOK
NH,03875,43.877824,-71.185722,581,-5,SILVER LAKE
NH,03878,43.255458,-70.882996,0,-5,SOMERSWORTH
NH,03882,43.737247,-71.049590,581,-5,EFFINGHAM
NH,03883,43.809042,-71.300205,581,-5,SOUTH TAMWORTH
NH,03884,43.281412,-71.145228,0,-5,STRAFFORD
NH,03885,43.014556,-70.900490,58,-5,STRATHAM
NH,03886,43.872217,-71.283678,581,-5,TAMWORTH
NH,03887,43.476354,-71.055156,581,-5,UNION
NH,03890,43.826490,-71.200206,581,-5,WEST OSSIPEE
NH,03894,43.592690,-71.160274,581,-5,WOLFEBORO
NH,03896,43.591900,-71.206200,581,-5,WOLFEBORO FALLS
NH,03897,43.900555,-71.329262,581,-5,WONALANCET
ME,03901,43.304751,-70.842121,266,-5,BERWICK
ME,03902,43.222476,-70.640226,266,-5,CAPE NEDDICK
ME,03903,43.145788,-70.783181,266,-5,ELIOT
ME,03904,43.111432,-70.736996,266,-5,KITTERY
ME,03905,43.098432,-70.686811,266,-5,KITTERY POINT
ME,03906,43.343302,-70.783915,266,-5,NORTH BERWICK
ME,03907,43.252350,-70.614601,266,-5,OGUNQUIT
ME,03908,43.241008,-70.740708,266,-5,SOUTH BERWICK
ME,03909,43.164595,-70.675542,266,-5,YORK
ME,03910,43.177900,-70.607700,266,-5,YORK BEACH
ME,03911,43.136700,-70.646200,266,-5,YORK HARBOR
ME,04001,43.525654,-70.916446,266,-5,ACTON
ME,04002,43.496302,-70.686340,266,-5,ALFRED
ME,04003,43.741257,-69.992664,26,-5,BAILEY ISLAND
ME,04004,43.613300,-70.550600,266,-5,BAR MILLS
ME,04005,43.496672,-70.488620,266,-5,BIDDEFORD
ME,04006,43.445466,-70.343406,266,-5,BIDDEFORD POOL
ME,04007,43.492700,-70.453700,266,-5,BIDDEFORD
ME,04008,44.036698,-69.859204,79,-5,BOWDOINHAM
ME,04009,44.033960,-70.750882,26,-5,BRIDGTON
ME,04010,43.959532,-70.908290,416,-5,BROWNFIELD
ME,04011,43.893092,-69.972310,26,-5,BRUNSWICK
ME,04013,43.800166,-70.071878,26,-5,BUSTINS ISLAND
ME,04014,43.370600,-70.437900,266,-5,CAPE PORPOISE
ME,04015,43.968619,-70.511506,26,-5,CASCO
ME,04016,44.170402,-70.866863,416,-5,CENTER LOVELL
ME,04017,43.733748,-70.118125,26,-5,CHEBEAGUE ISLAND
ME,04019,43.696744,-70.103094,26,-5,CLIFF ISLAND
ME,04020,43.761737,-70.807803,266,-5,CORNISH
ME,04021,43.797285,-70.266476,26,-5,CUMBERLAND CENTER
ME,04022,43.981238,-70.790278,416,-5,DENMARK
ME,04024,43.832407,-70.673648,26,-5,EAST BALDWIN
ME,04027,43.403389,-70.900681,266,-5,LEBANON
ME,04028,43.733600,-70.848300,266,-5,EAST PARSONSFIELD
ME,04029,43.891087,-70.662266,26,-5,SEBAGO
ME,04030,43.586864,-70.702614,266,-5,EAST WATERBORO
ME,04032,43.868552,-70.097670,26,-5,FREEPORT
ME,04033,43.856900,-70.103700,26,-5,FREEPORT
ME,04034,43.856900,-70.103700,26,-5,FREEPORT
ME,04037,44.081558,-70.912897,416,-5,FRYEBURG
ME,04038,43.715428,-70.462344,26,-5,GORHAM
ME,04039,43.887580,-70.341074,26,-5,GRAY
ME,04040,44.090188,-70.662777,26,-5,HARRISON
ME,04041,43.866455,-70.812214,416,-5,HIRAM
ME,04042,43.631117,-70.616750,266,-5,HOLLIS CENTER
ME,04043,43.396463,-70.572366,266,-5,KENNEBUNK
ME,04046,43.418308,-70.498213,266,-5,KENNEBUNKPORT
ME,04047,43.742046,-70.913568,266,-5,PARSONSFIELD
ME,04048,43.689054,-70.781740,266,-5,LIMERICK
ME,04049,43.730793,-70.704814,266,-5,LIMINGTON
ME,04050,43.691349,-70.153599,26,-5,LONG ISLAND
ME,04051,44.194834,-70.900717,416,-5,LOVELL
ME,04054,43.272600,-70.598900,266,-5,MOODY
ME,04055,43.971483,-70.625906,26,-5,NAPLES
ME,04056,43.648400,-70.848900,266,-5,NEWFIELD
ME,04057,44.099600,-70.699700,26,-5,NORTH BRIDGTON
ME,04061,43.636950,-70.744937,266,-5,NORTH WATERBORO
ME,04062,43.791745,-70.405627,26,-5,WINDHAM
ME,04063,43.500700,-70.397100,266,-5,OCEAN PARK
ME,04064,43.523242,-70.390641,266,-5,OLD ORCHARD BEACH
ME,04066,43.772374,-69.966824,26,-5,ORRS ISLAND
ME,04068,43.836947,-70.936057,416,-5,PORTER
ME,04069,43.894456,-70.183482,26,-5,POWNAL
ME,04070,43.578300,-70.322200,26,-5,SCARBOROUGH
ME,04071,43.913642,-70.496750,26,-5,RAYMOND
ME,04072,43.534032,-70.461988,266,-5,SACO
ME,04073,43.405431,-70.744776,266,-5,SANFORD
ME,04074,43.591658,-70.373274,26,-5,SCARBOROUGH
ME,04076,43.548807,-70.844392,266,-5,SHAPLEIGH
ME,04077,43.873100,-70.513800,26,-5,SOUTH CASCO
ME,04078,43.820800,-70.106400,26,-5,SOUTH FREEPORT
ME,04079,43.794741,-69.961822,26,-5,HARPSWELL
ME,04082,43.737500,-70.430400,26,-5,SOUTH WINDHAM
ME,04083,43.464000,-70.818170,266,-5,SPRINGVALE
ME,04084,43.771875,-70.552838,26,-5,STANDISH
ME,04085,43.763702,-70.623198,26,-5,STEEP FALLS
ME,04086,43.974146,-69.958190,79,-5,TOPSHAM
ME,04087,43.565926,-70.741487,266,-5,WATERBORO
ME,04088,44.196396,-70.754224,416,-5,WATERFORD
ME,04090,43.322472,-70.632434,266,-5,WELLS
ME,04091,43.833528,-70.734010,26,-5,WEST BALDWIN
ME,04092,43.693678,-70.355356,26,-5,WESTBROOK
ME,04093,43.633006,-70.535064,266,-5,BUXTON
ME,04094,43.406500,-70.580400,266,-5,WEST KENNEBUNK
ME,04095,43.635173,-70.895254,266,-5,WEST NEWFIELD
ME,04096,43.794539,-70.170592,26,-5,YARMOUTH
ME,04097,43.857934,-70.234058,26,-5,NORTH YARMOUTH
ME,04098,43.676900,-70.371400,26,-5,WESTBROOK
ME,04101,43.660796,-70.261277,26,-5,PORTLAND
ME,04102,43.663454,-70.302596,26,-5,PORTLAND
ME,04103,43.693689,-70.290406,26,-5,PORTLAND
ME,04104,43.661500,-70.255500,26,-5,PORTLAND
ME,04105,43.748283,-70.273362,26,-5,FALMOUTH
ME,04106,43.626315,-70.300730,26,-5,SOUTH PORTLAND
ME,04107,43.593316,-70.238670,26,-5,CAPE ELIZABETH
ME,04108,43.669681,-70.191234,26,-5,PEAKS ISLAND
ME,04109,43.652973,-70.201619,26,-5,PORTLAND
ME,04110,43.761680,-70.198915,26,-5,CUMBERLAND FORESIDE
ME,04112,43.661500,-70.255500,26,-5,PORTLAND
ME,04116,43.661500,-70.255500,26,-5,SOUTH PORTLAND
ME,04122,43.661500,-70.255500,26,-5,PORTLAND
ME,04123,43.661500,-70.255500,26,-5,PORTLAND
ME,04124,43.661500,-70.255500,26,-5,PORTLAND
ME,04210,44.086200,-70.227183,183,-5,AUBURN
ME,04211,44.097600,-70.231900,183,-5,AUBURN
ME,04212,44.097600,-70.231900,183,-5,AUBURN
ME,04216,44.737058,-70.861428,416,-5,ANDOVER
ME,04217,44.407495,-70.836008,416,-5,BETHEL
ME,04219,44.410881,-70.629866,416,-5,BRYANT POND
ME,04220,44.328618,-70.369245,416,-5,BUCKFIELD
ME,04221,44.434510,-70.335724,416,-5,CANTON
ME,04222,43.961440,-70.130772,183,-5,DURHAM
ME,04223,44.021000,-70.275600,183,-5,DANVILLE
ME,04224,44.579511,-70.415433,416,-5,DIXFIELD
ME,04225,44.620600,-70.257700,425,-5,DRYDEN
ME,04226,44.602324,-70.703188,416,-5,EAST ANDOVER
ME,04227,44.574400,-70.299600,425,-5,EAST DIXFIELD
ME,04228,44.414399,-70.138979,183,-5,EAST LIVERMORE
ME,04230,44.070100,-70.328600,183,-5,EAST POLAND
ME,04231,44.261218,-70.880972,416,-5,STONEHAM
ME,04234,44.617500,-70.190500,425,-5,EAST WILTON
ME,04236,44.192038,-70.146596,183,-5,GREENE
ME,04237,44.500066,-70.737321,416,-5,HANOVER
ME,04238,44.202414,-70.374066,416,-5,HEBRON
ME,04239,44.522978,-70.218567,425,-5,JAY
ME,04240,44.086388,-70.157552,183,-5,LEWISTON
ME,04241,44.100400,-70.215500,183,-5,LEWISTON
ME,04243,44.100400,-70.215500,183,-5,LEWISTON
ME,04250,44.022202,-70.121605,183,-5,LISBON
ME,04252,44.025039,-70.058865,183,-5,LISBON FALLS
ME,04253,44.410728,-70.214543,183,-5,LIVERMORE
ME,04254,44.428344,-70.150154,183,-5,LIVERMORE FALLS
ME,04255,44.317513,-70.675009,416,-5,GREENWOOD
ME,04256,44.109418,-70.405228,183,-5,MECHANIC FALLS
ME,04257,44.572562,-70.524688,416,-5,MEXICO
ME,04258,44.149480,-70.341393,183,-5,MINOT
ME,04259,44.224482,-70.006364,47,-5,MONMOUTH
ME,04260,43.965522,-70.302464,26,-5,NEW GLOUCESTER
ME,04261,44.541786,-70.787954,416,-5,NEWRY
ME,04262,44.550500,-70.228800,425,-5,NORTH JAY
ME,04263,44.288839,-70.136547,183,-5,LEEDS
ME,04265,44.272690,-70.033321,47,-5,NORTH MONMOUTH
ME,04266,44.342503,-70.256992,183,-5,NORTH TURNER
ME,04267,44.207900,-70.715800,416,-5,NORTH WATERFORD
ME,04268,44.233648,-70.614699,416,-5,NORWAY
ME,04270,44.103769,-70.502872,416,-5,OXFORD
ME,04271,44.259900,-70.502400,416,-5,PARIS
ME,04274,44.045581,-70.387080,183,-5,POLAND
ME,04275,44.747920,-70.705129,416,-5,ROXBURY
ME,04276,44.536680,-70.607892,416,-5,RUMFORD
ME,04280,44.131658,-70.060728,183,-5,SABATTUS
ME,04281,44.242188,-70.478310,416,-5,SOUTH PARIS
ME,04282,44.270562,-70.249816,183,-5,TURNER
ME,04284,44.337045,-70.071324,47,-5,WAYNE
ME,04285,44.707050,-70.454567,425,-5,WELD
ME,04286,44.401500,-70.856900,416,-5,WEST BETHEL
ME,04287,44.057558,-69.968245,79,-5,BOWDOIN
ME,04288,44.171400,-70.364200,183,-5,WEST MINOT
ME,04289,44.323037,-70.537036,416,-5,WEST PARIS
ME,04290,44.476736,-70.455404,416,-5,PERU
ME,04291,44.051300,-70.453300,183,-5,WEST POLAND
ME,04292,44.376541,-70.442529,416,-5,SUMNER
ME,04294,44.632740,-70.266331,425,-5,WILTON
ME,04330,44.378827,-69.730954,47,-5,AUGUSTA
ME,04332,44.310800,-69.780300,47,-5,AUGUSTA
ME,04333,44.306762,-69.782301,47,-5,AUGUSTA
ME,04336,44.310800,-69.780300,47,-5,AUGUSTA
ME,04338,44.310800,-69.780300,47,-5,AUGUSTA
ME,04341,44.317286,-69.433741,11,-5,COOPERS MILLS
ME,04342,44.076598,-69.740103,11,-5,DRESDEN
ME,04343,44.322600,-69.900600,47,-5,EAST WINTHROP
ME,04344,44.259998,-69.822356,47,-5,FARMINGDALE
ME,04345,44.196526,-69.801900,47,-5,GARDINER
ME,04346,44.233394,-69.740682,47,-5,RANDOLPH
ME,04347,44.288494,-69.816749,47,-5,HALLOWELL
ME,04348,44.221926,-69.497712,11,-5,JEFFERSON
ME,04349,44.435084,-70.073138,47,-5,KENTS HILL
ME,04350,44.165377,-69.937715,47,-5,LITCHFIELD
ME,04351,44.329728,-69.867897,47,-5,MANCHESTER
ME,04352,44.473504,-69.959606,47,-5,MOUNT VERNON
ME,04353,44.200735,-69.606083,11,-5,WHITEFIELD
ME,04354,44.395965,-69.424290,103,-5,PALERMO
ME,04355,44.389399,-69.952396,47,-5,READFIELD
ME,04357,44.123306,-69.828068,79,-5,RICHMOND
ME,04358,44.420472,-69.531370,47,-5,SOUTH CHINA
ME,04359,44.179200,-69.760400,47,-5,SOUTH GARDINER
ME,04360,44.536683,-70.002189,47,-5,VIENNA
ME,04363,44.311429,-69.578494,47,-5,WINDSOR
ME,04364,44.311894,-69.962531,47,-5,WINTHROP
ME,04401,44.863639,-68.815722,158,-5,BANGOR
ME,04402,44.801200,-68.778300,158,-5,BANGOR
ME,04406,45.286232,-69.552802,371,-5,ABBOT
ME,04408,44.913000,-68.351688,112,-5,AURORA
ME,04410,45.088264,-68.907054,158,-5,BRADFORD
ME,04411,44.880432,-68.570351,158,-5,BRADLEY
ME,04412,44.781038,-68.736102,158,-5,BREWER
ME,04413,45.595073,-67.661981,20,-5,BROOKTON
ME,04414,45.390960,-69.018468,371,-5,BROWNVILLE
ME,04415,45.350300,-69.052900,371,-5,BROWNVILLE JUNCTION
ME,04416,44.610843,-68.742679,112,-5,BUCKSPORT
ME,04417,45.192984,-68.410492,158,-5,BURLINGTON
ME,04418,45.042986,-68.518064,158,-5,GREENBUSH
ME,04419,44.800370,-68.998976,158,-5,CARMEL
ME,04420,44.387900,-68.800300,112,-5,CASTINE
ME,04421,44.414880,-68.793544,112,-5,CASTINE
ME,04422,45.071399,-69.034052,158,-5,CHARLESTON
ME,04424,45.529725,-67.861765,20,-5,DANFORTH
ME,04426,45.238598,-69.204766,371,-5,DOVER FOXCROFT
ME,04427,44.980300,-69.010626,158,-5,CORINTH
ME,04428,44.807537,-68.573372,158,-5,EDDINGTON
ME,04429,44.726592,-68.620331,158,-5,HOLDEN
ME,04430,45.643428,-68.588430,158,-5,EAST MILLINOCKET
ME,04431,44.570537,-68.672773,112,-5,EAST ORLAND
ME,04434,44.784730,-69.134804,158,-5,ETNA
ME,04435,44.963885,-69.146126,158,-5,EXETER
ME,04438,44.599622,-68.920920,103,-5,FRANKFORT
ME,04441,45.533506,-69.466488,371,-5,GREENVILLE
ME,04442,45.530307,-69.663894,371,-5,GREENVILLE JUNCTION
ME,04443,45.211538,-69.397985,371,-5,GUILFORD
ME,04444,44.730574,-68.931263,158,-5,HAMPDEN
ME,04448,45.228846,-68.707730,158,-5,HOWLAND
ME,04449,44.997197,-68.884076,158,-5,HUDSON
ME,04450,44.916858,-68.928759,158,-5,KENDUSKEAG
ME,04451,45.529570,-68.182150,158,-5,KINGMAN
ME,04453,45.212149,-68.824376,158,-5,LAGRANGE
ME,04454,45.516502,-67.481796,20,-5,LAMBERT LAKE
ME,04455,45.378214,-68.289476,158,-5,LEE
ME,04456,44.889519,-68.987770,158,-5,LEVANT
ME,04457,45.432299,-68.471546,158,-5,LINCOLN
ME,04459,45.549788,-68.319918,158,-5,MATTAWAMKEAG
ME,04460,45.649380,-68.578972,158,-5,MEDWAY
ME,04461,44.972824,-68.569348,158,-5,MILFORD
ME,04462,45.668414,-68.769541,158,-5,MILLINOCKET
ME,04463,45.284250,-68.875189,371,-5,MILO
ME,04464,45.299562,-69.520894,371,-5,MONSON
ME,04468,45.018227,-68.731784,158,-5,OLD TOWN
ME,04469,44.901720,-68.668137,158,-5,ORONO
ME,04471,45.887530,-67.833508,357,-5,ORIENT
ME,04472,44.578540,-68.676127,112,-5,ORLAND
ME,04473,44.882689,-68.716033,158,-5,ORONO
ME,04474,44.713764,-68.780805,158,-5,ORRINGTON
ME,04475,45.184872,-68.591988,158,-5,PASSADUMKEAG
ME,04476,44.468273,-68.692486,112,-5,PENOBSCOT
ME,04478,45.611394,-69.918290,175,-5,ROCKWOOD
ME,04479,45.126363,-69.311740,371,-5,SANGERVILLE
ME,04481,45.239207,-69.105225,371,-5,SEBEC
ME,04485,45.364600,-69.621200,371,-5,SHIRLEY MILLS
ME,04487,45.395378,-68.103000,158,-5,SPRINGFIELD
ME,04488,44.875892,-69.106414,158,-5,STETSON
ME,04489,44.908600,-68.686900,158,-5,STILLWATER
ME,04490,45.425163,-67.768100,20,-5,TOPSFIELD
ME,04491,45.553292,-67.475434,20,-5,VANCEBORO
ME,04492,45.391790,-67.567242,20,-5,WAITE
ME,04493,45.266329,-68.552201,158,-5,WEST ENFIELD
ME,04495,45.463754,-68.323293,158,-5,WINN
ME,04496,44.650175,-68.918429,103,-5,WINTERPORT
ME,04497,45.698846,-68.046208,357,-5,WYTOPITLOCK
ME,04530,43.868236,-69.801668,79,-5,BATH
ME,04535,44.087127,-69.629710,11,-5,ALNA
ME,04537,43.896728,-69.627297,11,-5,BOOTHBAY
ME,04538,43.852153,-69.618698,11,-5,BOOTHBAY HARBOR
ME,04539,43.954450,-69.496220,11,-5,BRISTOL
ME,04541,43.892199,-69.489120,11,-5,CHAMBERLAIN
ME,04543,44.034763,-69.497499,11,-5,DAMARISCOTTA
ME,04544,43.833945,-69.590266,11,-5,EAST BOOTHBAY
ME,04547,44.002276,-69.295845,35,-5,FRIENDSHIP
ME,04548,43.813196,-69.743748,79,-5,GEORGETOWN
ME,04549,43.861210,-69.681458,11,-5,ISLE OF SPRINGS
ME,04551,44.015353,-69.434788,11,-5,BREMEN
ME,04553,44.049068,-69.564276,11,-5,NEWCASTLE
ME,04554,43.858368,-69.504852,11,-5,NEW HARBOR
ME,04555,44.110833,-69.480660,11,-5,NOBLEBORO
ME,04556,43.968518,-69.608590,11,-5,EDGECOMB
ME,04558,43.893966,-69.520204,11,-5,PEMAQUID
ME,04562,43.789840,-69.827082,79,-5,PHIPPSBURG
ME,04563,44.009396,-69.251899,35,-5,CUSHING
ME,04564,43.927055,-69.455356,11,-5,ROUND POND
ME,04565,43.787665,-69.843920,79,-5,SEBASCO ESTATES
ME,04568,43.864838,-69.564590,11,-5,SOUTH BRISTOL
ME,04570,43.808997,-69.630598,11,-5,SQUIRREL ISLAND
ME,04571,43.902400,-69.676162,11,-5,TREVETT
ME,04572,44.108460,-69.363818,11,-5,WALDOBORO
ME,04573,43.946915,-69.558287,11,-5,WALPOLE
ME,04574,44.274241,-69.388346,35,-5,WASHINGTON
ME,04575,43.847600,-69.646900,11,-5,WEST BOOTHBAY HARBOR
ME,04576,43.818690,-69.667916,11,-5,SOUTHPORT
ME,04578,43.970152,-69.678987,11,-5,WISCASSET
ME,04579,43.954452,-69.771204,79,-5,WOOLWICH
ME,04605,44.650622,-68.411913,112,-5,ELLSWORTH
ME,04606,44.570376,-67.698686,20,-5,ADDISON
ME,04607,44.523335,-68.074402,112,-5,GOULDSBORO
ME,04609,44.357220,-68.286790,112,-5,BAR HARBOR
ME,04611,44.484896,-67.591813,20,-5,BEALS
ME,04612,44.250113,-68.353979,112,-5,BERNARD
ME,04613,44.381184,-68.032870,112,-5,BIRCH HARBOR
ME,04614,44.408537,-68.587088,112,-5,BLUE HILL
ME,04616,44.300917,-68.573597,112,-5,BROOKLIN
ME,04617,44.366149,-68.740600,112,-5,BROOKSVILLE
ME,04619,45.131714,-67.222220,20,-5,CALAIS
ME,04622,44.701881,-67.969204,20,-5,CHERRYFIELD
ME,04623,44.691495,-67.711899,20,-5,COLUMBIA FALLS
ME,04624,44.420141,-67.987409,112,-5,COREA
ME,04625,44.247116,-68.258562,112,-5,CRANBERRY ISLES
ME,04626,44.687476,-67.223715,20,-5,CUTLER
ME,04627,44.235665,-68.639150,112,-5,DEER ISLE
ME,04628,44.866512,-67.280808,20,-5,DENNYSVILLE
ME,04629,44.422255,-68.510089,112,-5,EAST BLUE HILL
ME,04630,44.765240,-67.373681,20,-5,EAST MACHIAS
ME,04631,44.919856,-67.015371,20,-5,EASTPORT
ME,04634,44.621614,-68.225326,112,-5,FRANKLIN
ME,04635,44.113262,-68.353397,112,-5,FRENCHBORO
ME,04637,45.179500,-67.775100,20,-5,GRAND LAKE STREAM
ME,04640,44.500798,-68.241182,112,-5,HANCOCK
ME,04642,44.343570,-68.797476,112,-5,HARBORSIDE
ME,04643,44.576334,-67.817968,20,-5,HARRINGTON
ME,04644,44.419300,-68.251400,112,-5,HULLS COVE
ME,04645,44.048219,-68.630215,35,-5,ISLE AU HAUT
ME,04646,44.259276,-68.226447,112,-5,ISLESFORD
ME,04648,44.668350,-67.586250,20,-5,JONESBORO
ME,04649,44.561684,-67.565064,20,-5,JONESPORT
ME,04650,44.289888,-68.716116,112,-5,LITTLE DEER ISLE
ME,04652,44.806816,-67.114756,20,-5,LUBEC
ME,04653,44.225641,-68.332413,112,-5,BASS HARBOR
ME,04654,44.795059,-67.570890,20,-5,MACHIAS
ME,04655,44.654657,-67.401512,20,-5,MACHIASPORT
ME,04657,45.009068,-67.398992,20,-5,MEDDYBEMPS
ME,04658,44.534513,-67.868930,20,-5,MILBRIDGE
ME,04660,44.336574,-68.372125,112,-5,MOUNT DESERT
ME,04662,44.300802,-68.285672,112,-5,NORTHEAST HARBOR
ME,04664,44.534894,-68.215956,112,-5,SULLIVAN
ME,04666,44.976852,-67.233813,20,-5,PEMBROKE
ME,04667,44.981033,-67.111887,20,-5,PERRY
ME,04668,45.185044,-67.566324,20,-5,PRINCETON
ME,04669,44.433742,-68.036434,112,-5,PROSPECT HARBOR
ME,04671,45.062557,-67.172316,20,-5,ROBBINSTON
ME,04672,44.432776,-68.284997,112,-5,SALSBURY COVE
ME,04673,44.325790,-68.711894,112,-5,SARGENTVILLE
ME,04674,44.278446,-68.387850,112,-5,SEAL COVE
ME,04675,44.299533,-68.244442,112,-5,SEAL HARBOR
ME,04676,44.350191,-68.641117,112,-5,SEDGWICK
ME,04677,44.491856,-68.178173,112,-5,SORRENTO
ME,04679,44.225891,-68.299710,112,-5,SOUTHWEST HARBOR
ME,04680,44.486280,-67.945038,20,-5,STEUBEN
ME,04681,44.171176,-68.667438,112,-5,STONINGTON
ME,04683,44.212866,-68.736970,112,-5,SUNSET
ME,04684,44.466498,-68.528624,112,-5,SURRY
ME,04685,44.159798,-68.443866,112,-5,SWANS ISLAND
ME,04686,44.715300,-67.461900,20,-5,WESLEY
ME,04691,44.854761,-67.080730,20,-5,WHITING
ME,04693,44.378704,-68.093256,112,-5,WINTER HARBOR
ME,04694,45.128465,-67.450995,20,-5,BAILEYVILLE
ME,04730,46.135091,-67.910906,357,-5,HOULTON
ME,04732,46.674858,-68.510875,357,-5,ASHLAND
ME,04733,45.805568,-68.394425,357,-5,BENEDICTA
ME,04734,46.488179,-67.826830,357,-5,BLAINE
ME,04735,46.428628,-67.885736,357,-5,BRIDGEWATER
ME,04736,46.912133,-68.048883,357,-5,CARIBOU
ME,04737,46.624130,-69.539929,357,-5,CLAYTON LAKE
ME,04738,46.755200,-68.096800,357,-5,CROUSEVILLE
ME,04739,47.023547,-68.691924,357,-5,EAGLE LAKE
ME,04740,46.643044,-67.871128,357,-5,EASTON
ME,04741,47.369607,-69.188449,357,-5,ESTCOURT STATION
ME,04742,46.776756,-67.858100,357,-5,FORT FAIRFIELD
ME,04743,47.109638,-68.689342,357,-5,FORT KENT
ME,04744,47.238600,-68.584500,357,-5,FORT KENT MILLS
ME,04745,47.278097,-68.391046,357,-5,FRENCHVILLE
ME,04746,47.265778,-68.130983,357,-5,GRAND ISLE
ME,04747,45.949642,-68.229890,357,-5,ISLAND FALLS
ME,04750,46.963690,-67.859768,357,-5,LIMESTONE
ME,04751,46.959914,-67.886698,357,-5,LIMESTONE
ME,04756,47.317262,-68.298869,357,-5,MADAWASKA
ME,04757,46.655787,-68.175925,357,-5,MAPLETON
ME,04758,46.516260,-67.941745,357,-5,MARS HILL
ME,04760,46.346535,-67.867783,357,-5,MONTICELLO
ME,04761,46.119063,-67.972604,357,-5,NEW LIMERICK
ME,04762,46.969894,-68.121028,357,-5,NEW SWEDEN
ME,04763,46.118651,-68.104100,357,-5,OAKFIELD
ME,04764,46.411094,-68.568422,357,-5,OXBOW
ME,04765,46.137885,-68.561120,158,-5,PATTEN
ME,04766,46.844742,-68.335711,357,-5,PERHAM
ME,04768,46.787648,-68.501842,357,-5,PORTAGE
ME,04769,46.656232,-67.981308,357,-5,PRESQUE ISLE
ME,04772,47.244350,-68.318260,357,-5,SAINT AGATHA
ME,04773,47.277922,-68.235004,357,-5,SAINT DAVID
ME,04774,47.091872,-69.056862,357,-5,SAINT FRANCIS
ME,04775,46.657200,-68.405700,357,-5,SHERIDAN
ME,04776,45.809432,-68.304412,357,-5,SHERMAN
ME,04777,45.856356,-68.481414,158,-5,STACYVILLE
ME,04779,47.143071,-68.238459,357,-5,SINCLAIR
ME,04780,46.165360,-68.238341,357,-5,SMYRNA MILLS
ME,04781,47.150280,-68.630358,357,-5,WALLAGRASS
ME,04783,47.062978,-68.253102,357,-5,STOCKHOLM
ME,04785,47.151453,-67.926005,357,-5,VAN BUREN
ME,04786,46.787579,-68.166406,357,-5,WASHBURN
ME,04787,46.523666,-67.957252,357,-5,WESTFIELD
ME,04841,44.125254,-69.133633,35,-5,ROCKLAND
ME,04843,44.225243,-69.090262,35,-5,CAMDEN
ME,04847,44.255592,-69.188630,35,-5,HOPE
ME,04848,44.312018,-68.914000,103,-5,ISLESBORO
ME,04849,44.321947,-69.072522,103,-5,LINCOLNVILLE
ME,04850,44.298900,-69.104700,103,-5,LINCOLNVILLE CENTER
ME,04851,43.848106,-68.891844,35,-5,MATINICUS
ME,04852,43.764319,-69.312462,11,-5,MONHEGAN
ME,04853,44.147978,-68.875782,35,-5,NORTH HAVEN
ME,04854,44.044323,-69.089378,35,-5,OWLS HEAD
ME,04855,43.927600,-69.260300,35,-5,PORT CLYDE
ME,04856,44.173396,-69.124877,35,-5,ROCKPORT
ME,04858,44.036538,-69.147050,35,-5,SOUTH THOMASTON
ME,04859,44.007216,-69.173580,35,-5,SPRUCE HEAD
ME,04860,43.966807,-69.230840,35,-5,TENANTS HARBOR
ME,04861,44.095001,-69.174584,35,-5,THOMASTON
ME,04862,44.265820,-69.279608,35,-5,UNION
ME,04863,44.081538,-68.844472,35,-5,VINALHAVEN
ME,04864,44.126419,-69.241000,35,-5,WARREN
ME,04865,44.190700,-69.147200,35,-5,WEST ROCKPORT
ME,04901,44.557281,-69.580299,47,-5,WATERVILLE
ME,04903,44.551700,-69.632200,47,-5,WATERVILLE
ME,04910,44.520622,-69.444170,47,-5,ALBION
ME,04911,44.772980,-69.958183,175,-5,ANSON
ME,04912,44.945325,-69.647265,175,-5,ATHENS
ME,04915,44.469266,-69.056691,103,-5,BELFAST
ME,04917,44.482950,-69.838164,47,-5,BELGRADE
ME,04918,44.504600,-69.854800,47,-5,BELGRADE LAKES
ME,04920,45.141990,-69.879158,175,-5,BINGHAM
ME,04921,44.565952,-69.164214,103,-5,BROOKS
ME,04922,44.694926,-69.392968,103,-5,BURNHAM
ME,04923,45.033879,-69.428824,175,-5,CAMBRIDGE
ME,04924,44.762238,-69.526379,175,-5,CANAAN
ME,04925,45.254668,-69.906115,175,-5,CARATUNK
ME,04926,44.478800,-69.517600,47,-5,CHINA VILLAGE
ME,04927,44.649710,-69.513019,47,-5,CLINTON
ME,04928,44.945902,-69.234080,158,-5,CORINNA
ME,04929,44.761259,-69.316506,175,-5,DETROIT
ME,04930,45.029234,-69.337642,158,-5,DEXTER
ME,04932,44.694920,-69.132831,158,-5,DIXMONT
ME,04933,44.820800,-69.223200,158,-5,EAST NEWPORT
ME,04935,44.447800,-69.606600,47,-5,EAST VASSALBORO
ME,04936,45.400842,-70.630941,425,-5,EUSTIS
ME,04937,44.667465,-69.679510,175,-5,FAIRFIELD
ME,04938,44.653556,-70.114928,425,-5,FARMINGTON
ME,04939,45.056049,-69.158888,158,-5,GARLAND
ME,04940,44.620500,-70.075800,425,-5,FARMINGTON FALLS
ME,04941,44.463434,-69.271369,103,-5,FREEDOM
ME,04942,45.067890,-69.620060,175,-5,HARMONY
ME,04943,44.858880,-69.527783,175,-5,HARTLAND
ME,04944,44.685900,-69.633200,175,-5,HINCKLEY
ME,04945,45.740241,-70.245567,175,-5,JACKMAN
ME,04947,44.989974,-70.350538,425,-5,KINGFIELD
ME,04949,44.368732,-69.331741,103,-5,LIBERTY
ME,04950,44.835365,-69.804684,175,-5,MADISON
ME,04951,44.592518,-69.045594,103,-5,MONROE
ME,04952,44.404428,-69.156969,103,-5,MORRILL
ME,04953,44.859006,-69.224352,158,-5,NEWPORT
ME,04954,44.879740,-70.042414,175,-5,NEW PORTLAND
ME,04955,44.644647,-70.007370,425,-5,NEW SHARON
ME,04956,44.799528,-70.106365,425,-5,NEW VINEYARD
ME,04957,44.706874,-69.847181,175,-5,NORRIDGEWOCK
ME,04958,44.934066,-69.942561,175,-5,NORTH ANSON
ME,04961,44.994021,-70.055705,175,-5,NEW PORTLAND
ME,04962,44.467508,-69.607670,47,-5,NORTH VASSALBORO
ME,04963,44.564851,-69.805955,47,-5,OAKLAND
ME,04964,44.874401,-70.733340,425,-5,OQUOSSOC
ME,04965,44.846582,-69.365282,175,-5,PALMYRA
ME,04966,44.864346,-70.413982,425,-5,PHILLIPS
ME,04967,44.781636,-69.428302,175,-5,PITTSFIELD
ME,04969,44.771673,-69.214974,158,-5,PLYMOUTH
ME,04970,44.967262,-70.638820,425,-5,RANGELEY
ME,04971,44.922447,-69.390448,175,-5,SAINT ALBANS
ME,04972,44.514800,-68.813600,103,-5,SANDY POINT
ME,04973,44.359820,-69.200330,103,-5,SEARSMONT
ME,04974,44.496608,-68.931638,103,-5,SEARSPORT
ME,04975,44.620500,-69.588100,175,-5,SHAWMUT
ME,04976,44.813318,-69.665868,175,-5,SKOWHEGAN
ME,04978,44.633362,-69.806500,175,-5,SMITHFIELD
ME,04979,44.984748,-69.802981,175,-5,SOLON
ME,04981,44.525714,-68.868892,103,-5,STOCKTON SPRINGS
ME,04982,45.116135,-70.435774,425,-5,STRATTON
ME,04983,44.835118,-70.230954,425,-5,STRONG
ME,04984,44.697600,-70.281658,425,-5,TEMPLE
ME,04985,45.427521,-69.975224,175,-5,WEST FORKS
ME,04986,44.573891,-69.231610,103,-5,THORNDIKE
ME,04987,44.672832,-69.255468,103,-5,TROY
ME,04988,44.603939,-69.340086,103,-5,UNITY
ME,04989,44.430027,-69.647541,47,-5,VASSALBORO
ME,04992,44.662600,-70.155900,425,-5,WEST FARMINGTON
VT,05001,43.669840,-72.385832,705,-5,WHITE RIVER JUNCTION
VT,05009,43.648700,-72.319400,705,-5,WHITE RIVER JUNCTION
VT,05030,43.424200,-72.442600,705,-5,ASCUTNEY
VT,05031,43.733622,-72.591802,705,-5,BARNARD
VT,05032,43.794058,-72.660149,705,-5,BETHEL
VT,05033,44.009020,-72.168174,1350,-5,BRADFORD
VT,05034,43.573407,-72.642531,705,-5,BRIDGEWATER
VT,05035,43.604408,-72.694380,705,-5,BRIDGEWATER CORNERS
VT,05036,44.026306,-72.582288,1350,-5,BROOKFIELD
VT,05037,43.463316,-72.479116,705,-5,BROWNSVILLE
VT,05038,43.995470,-72.460010,1350,-5,CHELSEA
VT,05039,44.028081,-72.293180,1350,-5,CORINTH
VT,05040,44.070278,-72.215918,1350,-5,EAST CORINTH
VT,05041,43.949019,-72.539024,1350,-5,EAST RANDOLPH
VT,05042,44.213434,-72.105888,588,-5,EAST RYEGATE
VT,05043,43.816922,-72.218249,1350,-5,EAST THETFORD
VT,05045,43.917408,-72.189239,1350,-5,FAIRLEE
VT,05046,44.227440,-72.256546,588,-5,GROTON
VT,05047,43.660600,-72.338600,705,-5,HARTFORD
VT,05048,43.578176,-72.429138,705,-5,HARTLAND
VT,05049,43.546600,-72.425200,705,-5,HARTLAND FOUR CORNERS
VT,05050,44.258800,-72.058500,588,-5,MC INDOE FALLS
VT,05051,44.076622,-72.089628,1350,-5,NEWBURY
VT,05052,43.597046,-72.348348,705,-5,NORTH HARTLAND
VT,05053,43.721650,-72.501345,705,-5,NORTH POMFRET
VT,05054,43.856760,-72.184860,1350,-5,NORTH THETFORD
VT,05055,43.747833,-72.301863,705,-5,NORWICH
VT,05056,43.528302,-72.722152,705,-5,PLYMOUTH
VT,05058,43.884125,-72.266402,1350,-5,POST MILLS
VT,05059,43.658016,-72.433168,705,-5,QUECHEE
VT,05060,43.975176,-72.700166,1350,-5,RANDOLPH
VT,05061,43.933028,-72.567786,1350,-5,RANDOLPH CENTER
VT,05062,43.502448,-72.585046,705,-5,READING
VT,05065,43.779406,-72.433804,705,-5,SHARON
VT,05067,43.689518,-72.536580,705,-5,SOUTH POMFRET
VT,05068,43.781083,-72.539533,705,-5,SOUTH ROYALTON
VT,05069,44.151152,-72.163906,588,-5,SOUTH RYEGATE
VT,05070,43.822875,-72.359428,1350,-5,SOUTH STRAFFORD
VT,05071,43.563604,-72.570078,705,-5,SOUTH WOODSTOCK
VT,05072,43.877069,-72.381186,1350,-5,STRAFFORD
VT,05073,43.628720,-72.461441,705,-5,TAFTSVILLE
VT,05074,43.833160,-72.223552,1350,-5,THETFORD
VT,05075,43.850324,-72.266435,1350,-5,THETFORD CENTER
VT,05076,44.131250,-72.241166,1350,-5,TOPSHAM
VT,05077,43.904932,-72.476708,1350,-5,TUNBRIDGE
VT,05079,43.955564,-72.329855,1350,-5,VERSHIRE
VT,05081,44.138568,-72.087900,1350,-5,WELLS RIVER
VT,05083,43.929110,-72.269378,1350,-5,WEST FAIRLEE
VT,05084,43.716006,-72.453778,705,-5,WEST HARTFORD
VT,05085,44.070960,-72.147712,1350,-5,WEST NEWBURY
VT,05086,44.127523,-72.308048,1350,-5,WEST TOPSHAM
VT,05088,43.678040,-72.308184,705,-5,WILDER
VT,05089,43.483742,-72.456561,705,-5,WINDSOR
VT,05091,43.651460,-72.569607,705,-5,WOODSTOCK
VT,05101,43.170609,-72.498478,536,-5,BELLOWS FALLS
VT,05141,43.153611,-72.573284,536,-5,CAMBRIDGEPORT
VT,05142,43.400492,-72.583604,705,-5,CAVENDISH
VT,05143,43.226012,-72.645954,705,-5,CHESTER
VT,05146,43.169999,-72.620116,536,-5,GRAFTON
VT,05148,43.248321,-72.853462,536,-5,LONDONDERRY
VT,05149,43.398882,-72.709738,705,-5,LUDLOW
VT,05150,43.338714,-72.524403,705,-5,NORTH SPRINGFIELD
VT,05151,43.393446,-72.480080,705,-5,PERKINSVILLE
VT,05152,43.220797,-72.896006,681,-5,PERU
VT,05153,43.416681,-72.626577,705,-5,PROCTORSVILLE
VT,05154,43.143482,-72.509056,536,-5,SAXTONS RIVER
VT,05155,43.183274,-72.803439,536,-5,SOUTH LONDONDERRY
VT,05156,43.316838,-72.469962,705,-5,SPRINGFIELD
VT,05158,43.097780,-72.476978,536,-5,WESTMINSTER
VT,05159,43.087300,-72.446800,536,-5,WESTMINSTER STATION
VT,05161,43.309596,-72.811456,705,-5,WESTON
VT,05201,42.909722,-73.140554,681,-5,BENNINGTON
VT,05250,43.122999,-73.175492,681,-5,ARLINGTON
VT,05251,43.259472,-73.060044,681,-5,DORSET
VT,05252,43.070921,-73.073236,681,-5,EAST ARLINGTON
VT,05253,43.257198,-73.008613,681,-5,EAST DORSET
VT,05254,43.162543,-73.070029,681,-5,MANCHESTER
VT,05255,43.169660,-73.066116,681,-5,MANCHESTER CENTER
VT,05257,42.964386,-73.242846,681,-5,NORTH BENNINGTON
VT,05260,42.813468,-73.265520,681,-5,NORTH POWNAL
VT,05261,42.778853,-73.214612,681,-5,POWNAL
VT,05262,42.979762,-73.200970,681,-5,SHAFTSBURY
VT,05301,42.859824,-72.681308,536,-5,BRATTLEBORO
VT,05302,42.850900,-72.558400,536,-5,BRATTLEBORO
VT,05303,42.850900,-72.558400,536,-5,BRATTLEBORO
VT,05304,42.850900,-72.558400,536,-5,BRATTLEBORO
VT,05340,43.162644,-72.932236,681,-5,BONDVILLE
VT,05341,42.954899,-72.780560,536,-5,EAST DOVER
VT,05342,42.781178,-72.790134,536,-5,JACKSONVILLE
VT,05343,43.102245,-72.813372,536,-5,JAMAICA
VT,05344,42.846315,-72.750421,536,-5,MARLBORO
VT,05345,43.008875,-72.664267,536,-5,NEWFANE
VT,05346,43.022472,-72.533803,536,-5,PUTNEY
VT,05350,42.799683,-72.975330,681,-5,READSBORO
VT,05351,42.940816,-72.735813,536,-5,SOUTH NEWFANE
VT,05352,42.789622,-73.077702,681,-5,STAMFORD
VT,05353,43.069349,-72.692638,536,-5,TOWNSHEND
VT,05354,42.775560,-72.512069,536,-5,VERNON
VT,05355,43.021464,-72.813208,536,-5,WARDSBORO
VT,05356,42.973371,-72.896974,536,-5,WEST DOVER
VT,05357,42.926400,-72.615900,536,-5,WEST DUMMERSTON
VT,05358,42.774471,-72.743740,536,-5,WEST HALIFAX
VT,05359,43.146071,-72.719228,536,-5,WEST TOWNSHEND
VT,05360,43.054472,-72.927014,536,-5,WEST WARDSBORO
VT,05361,42.783081,-72.873080,536,-5,WHITINGHAM
VT,05362,42.940978,-72.677001,536,-5,WILLIAMSVILLE
VT,05363,42.872614,-72.888584,536,-5,WILMINGTON
VT,05401,44.484133,-73.247857,113,-5,BURLINGTON
VT,05402,44.475600,-73.212600,113,-5,BURLINGTON
VT,05403,44.454475,-73.184981,113,-5,SOUTH BURLINGTON
VT,05404,44.494860,-73.183567,113,-5,WINOOSKI
VT,05405,44.477610,-73.195632,113,-5,BURLINGTON
VT,05406,44.475600,-73.212600,113,-5,BURLINGTON
VT,05407,44.475600,-73.212600,113,-5,SOUTH BURLINGTON
VT,05408,44.511264,-73.243959,113,-5,BURLINGTON
VT,05439,44.543700,-73.148500,113,-5,COLCHESTER
VT,05440,44.928483,-73.273280,116,-5,ALBURGH
VT,05441,44.782857,-72.751601,429,-5,BAKERSFIELD
VT,05442,44.766070,-72.669336,576,-5,BELVIDERE CENTER
VT,05443,44.156921,-73.030774,366,-5,BRISTOL
VT,05444,44.648159,-72.907013,113,-5,CAMBRIDGE
VT,05445,44.311093,-73.236224,113,-5,CHARLOTTE
VT,05446,44.550854,-73.229872,113,-5,COLCHESTER
VT,05447,44.941558,-72.702468,429,-5,EAST BERKSHIRE
VT,05448,44.761373,-72.882023,429,-5,EAST FAIRFIELD
VT,05449,44.543700,-73.148500,113,-5,COLCHESTER
VT,05450,44.897955,-72.794758,429,-5,ENOSBURG FALLS
VT,05451,44.521500,-73.060800,113,-5,ESSEX
VT,05452,44.510763,-73.052832,113,-5,ESSEX JUNCTION
VT,05453,44.490800,-73.111600,113,-5,ESSEX JUNCTION
VT,05454,44.716346,-73.017241,113,-5,FAIRFAX
VT,05455,44.809174,-72.969978,429,-5,FAIRFIELD
VT,05456,44.212922,-73.266968,366,-5,FERRISBURGH
VT,05457,44.958573,-72.912382,429,-5,FRANKLIN
VT,05458,44.723144,-73.299926,116,-5,GRAND ISLE
VT,05459,44.963314,-73.009640,429,-5,HIGHGATE CENTER
VT,05460,44.976600,-73.105400,429,-5,HIGHGATE SPRINGS
VT,05461,44.315623,-73.090922,113,-5,HINESBURG
VT,05462,44.291683,-72.960950,113,-5,HUNTINGTON
VT,05463,44.890407,-73.301171,116,-5,ISLE LA MOTTE
VT,05464,44.641023,-72.813533,576,-5,JEFFERSONVILLE
VT,05465,44.467400,-72.917804,113,-5,JERICHO
VT,05466,44.383600,-72.938200,113,-5,JONESVILLE
VT,05468,44.663734,-73.147455,113,-5,MILTON
VT,05469,44.238800,-73.148300,366,-5,MONKTON
VT,05470,44.902500,-72.638600,429,-5,MONTGOMERY
VT,05471,44.854104,-72.587924,429,-5,MONTGOMERY CENTER
VT,05472,44.141539,-73.164032,366,-5,NEW HAVEN
VT,05473,44.244494,-73.203646,366,-5,NORTH FERRISBURGH
VT,05474,44.838791,-73.275228,116,-5,NORTH HERO
VT,05476,44.955183,-72.650886,429,-5,RICHFORD
VT,05477,44.388236,-72.950571,113,-5,RICHMOND
VT,05478,44.818326,-73.126686,429,-5,SAINT ALBANS
VT,05479,44.810600,-73.083600,429,-5,SAINT ALBANS
VT,05481,44.807300,-73.139800,429,-5,SAINT ALBANS BAY
VT,05482,44.394886,-73.230426,113,-5,SHELBURNE
VT,05483,44.885684,-72.969836,429,-5,SHELDON
VT,05485,44.905600,-72.981000,429,-5,SHELDON SPRINGS
VT,05486,44.625673,-73.309252,116,-5,SOUTH HERO
VT,05487,44.236003,-73.003136,366,-5,STARKSBORO
VT,05488,44.902072,-73.133964,429,-5,SWANTON
VT,05489,44.549550,-72.891354,113,-5,UNDERHILL
VT,05490,44.507700,-72.900000,113,-5,UNDERHILL CENTER
VT,05491,44.125631,-73.305775,366,-5,VERGENNES
VT,05492,44.719678,-72.766420,576,-5,WATERVILLE
VT,05494,44.603384,-73.027348,113,-5,WESTFORD
VT,05495,44.424416,-73.087094,113,-5,WILLISTON
MA,05501,42.649500,-71.183800,9,-5,ANDOVER
MA,05544,42.658600,-71.137700,9,-5,ANDOVER
VT,05601,44.260100,-72.575900,484,-5,MONTPELIER
VT,05602,44.279964,-72.609412,484,-5,MONTPELIER
VT,05603,44.260100,-72.575900,484,-5,MONTPELIER
VT,05604,44.260100,-72.575900,484,-5,MONTPELIER
VT,05609,44.260100,-72.575900,484,-5,MONTPELIER
VT,05620,44.260100,-72.575900,484,-5,MONTPELIER
VT,05633,44.260100,-72.575900,484,-5,MONTPELIER
VT,05640,44.351662,-72.498199,484,-5,ADAMANT
VT,05641,44.184388,-72.447615,484,-5,BARRE
VT,05647,44.407038,-72.289867,484,-5,CABOT
VT,05648,44.378676,-72.497325,484,-5,CALAIS
VT,05649,44.147810,-72.394870,484,-5,EAST BARRE
VT,05650,44.390511,-72.433596,484,-5,EAST CALAIS
VT,05651,44.281498,-72.496098,484,-5,EAST MONTPELIER
VT,05652,44.734313,-72.633388,576,-5,EDEN
VT,05653,44.702792,-72.490247,576,-5,EDEN MILLS
VT,05654,44.147256,-72.479035,484,-5,GRANITEVILLE
VT,05655,44.628930,-72.564211,576,-5,HYDE PARK
VT,05656,44.646401,-72.680382,576,-5,JOHNSON
VT,05657,44.541439,-72.529073,576,-5,LAKE ELMORE
VT,05658,44.360319,-72.353028,484,-5,MARSHFIELD
VT,05660,44.252609,-72.761586,484,-5,MORETOWN
VT,05661,44.541157,-72.637343,576,-5,MORRISVILLE
VT,05662,44.441500,-72.715900,576,-5,MOSCOW
VT,05663,44.137891,-72.685056,484,-5,NORTHFIELD
VT,05664,44.169954,-72.649876,484,-5,NORTHFIELD FALLS
VT,05665,44.670600,-72.598800,576,-5,NORTH HYDE PARK
VT,05666,44.276852,-72.468106,484,-5,NORTH MONTPELIER
VT,05667,44.291300,-72.404736,484,-5,PLAINFIELD
VT,05669,44.069641,-72.744960,366,-5,ROXBURY
VT,05670,44.167900,-72.500200,484,-5,SOUTH BARRE
VT,05671,44.337900,-72.756400,484,-5,WATERBURY
VT,05672,44.480794,-72.717655,576,-5,STOWE
VT,05673,44.200827,-72.848134,484,-5,WAITSFIELD
VT,05674,44.108529,-72.852488,484,-5,WARREN
VT,05675,44.069320,-72.420266,1350,-5,WASHINGTON
VT,05676,44.352331,-72.805656,484,-5,WATERBURY
VT,05677,44.392058,-72.705846,484,-5,WATERBURY CENTER
VT,05678,44.159644,-72.469480,484,-5,WEBSTERVILLE
VT,05679,44.102189,-72.548263,1350,-5,WILLIAMSTOWN
VT,05680,44.535453,-72.482192,576,-5,WOLCOTT
VT,05681,44.449835,-72.412264,484,-5,WOODBURY
VT,05682,44.397746,-72.572618,484,-5,WORCESTER
VT,05701,43.639036,-72.922874,648,-5,RUTLAND
VT,05702,43.610600,-72.973100,648,-5,RUTLAND
VT,05730,43.421144,-72.820736,648,-5,BELMONT
VT,05731,43.706600,-73.311800,648,-5,BENSON
VT,05732,43.635630,-73.203987,648,-5,BOMOSEEN
VT,05733,43.840453,-73.092253,648,-5,BRANDON
VT,05734,43.944874,-73.333950,366,-5,BRIDPORT
VT,05735,43.653949,-73.165581,648,-5,CASTLETON
VT,05736,43.619312,-73.018707,648,-5,CENTER RUTLAND
VT,05737,43.710296,-72.925325,648,-5,CHITTENDEN
VT,05738,43.548864,-72.848728,648,-5,CUTTINGSVILLE
VT,05739,43.352171,-72.992568,648,-5,DANBY
VT,05740,43.973400,-73.106400,366,-5,EAST MIDDLEBURY
VT,05741,43.526600,-73.205200,648,-5,EAST POULTNEY
VT,05742,43.426181,-72.888618,648,-5,EAST WALLINGFORD
VT,05743,43.651664,-73.306618,648,-5,FAIR HAVEN
VT,05744,43.688328,-73.076240,648,-5,FLORENCE
VT,05745,43.828400,-73.054600,648,-5,FOREST DALE
VT,05746,43.710646,-72.754662,705,-5,GAYSVILLE
VT,05747,44.004860,-72.829344,366,-5,GRANVILLE
VT,05748,43.917600,-72.908428,366,-5,HANCOCK
VT,05750,43.617884,-73.234152,648,-5,HYDEVILLE
VT,05751,43.655457,-72.785346,648,-5,KILLINGTON
VT,05753,43.999029,-73.176136,366,-5,MIDDLEBURY
VT,05757,43.484096,-73.123104,648,-5,MIDDLETOWN SPRINGS
VT,05758,43.421628,-72.798365,648,-5,MOUNT HOLLY
VT,05759,43.536976,-72.952538,648,-5,NORTH CLARENDON
VT,05760,43.787774,-73.298882,366,-5,ORWELL
VT,05761,43.358508,-73.148682,648,-5,PAWLET
VT,05762,43.775876,-72.890268,648,-5,PITTSFIELD
VT,05763,43.742296,-72.998026,648,-5,PITTSFORD
VT,05764,43.525218,-73.182204,648,-5,POULTNEY
VT,05765,43.649623,-73.032716,648,-5,PROCTOR
VT,05766,43.984080,-72.985649,366,-5,RIPTON
VT,05767,43.867307,-72.848530,705,-5,ROCHESTER
VT,05768,43.257600,-73.225500,681,-5,RUPERT
VT,05769,43.917627,-73.115023,366,-5,SALISBURY
VT,05770,43.874879,-73.321844,366,-5,SHOREHAM
VT,05772,43.773638,-72.740246,705,-5,STOCKBRIDGE
VT,05773,43.445476,-73.008096,648,-5,WALLINGFORD
VT,05774,43.447171,-73.181794,648,-5,WELLS
VT,05775,43.361126,-73.218126,648,-5,WEST PAWLET
VT,05776,43.265585,-73.188532,681,-5,WEST RUPERT
VT,05777,43.571372,-73.049234,648,-5,WEST RUTLAND
VT,05778,43.880210,-73.203834,366,-5,WHITING
VT,05819,44.423148,-71.968914,588,-5,SAINT JOHNSBURY
VT,05820,44.749140,-72.357962,723,-5,ALBANY
VT,05821,44.316294,-72.082797,588,-5,BARNET
VT,05822,44.744998,-72.147225,723,-5,BARTON
VT,05823,45.005300,-72.141300,723,-5,BEEBE PLAIN
VT,05824,44.438108,-71.851258,368,-5,CONCORD
VT,05825,44.856872,-72.235489,723,-5,COVENTRY
VT,05826,44.654076,-72.389794,723,-5,CRAFTSBURY
VT,05827,44.682376,-72.358566,723,-5,CRAFTSBURY COMMON
VT,05828,44.453342,-72.122876,588,-5,DANVILLE
VT,05829,44.954694,-72.082626,723,-5,DERBY
VT,05830,44.970167,-72.021396,723,-5,DERBY LINE
VT,05832,44.594343,-71.900911,588,-5,EAST BURKE
VT,05833,44.839450,-71.954782,723,-5,EAST CHARLESTON
VT,05836,44.522400,-72.247738,588,-5,EAST HARDWICK
VT,05837,44.666529,-71.828896,368,-5,EAST HAVEN
VT,05838,44.438700,-71.946300,588,-5,EAST SAINT JOHNSBURY
VT,05839,44.677822,-72.221718,723,-5,GLOVER
VT,05840,44.602518,-71.720310,368,-5,GRANBY
VT,05841,44.603972,-72.289069,723,-5,GREENSBORO
VT,05842,44.565536,-72.218341,723,-5,GREENSBORO BEND
VT,05843,44.524114,-72.326255,588,-5,HARDWICK
VT,05845,44.800630,-72.300119,723,-5,IRASBURG
VT,05846,44.779842,-71.845163,368,-5,ISLAND POND
VT,05847,44.786663,-72.452698,723,-5,LOWELL
VT,05848,44.354700,-71.907700,588,-5,LOWER WATERFORD
VT,05849,44.514500,-72.011600,588,-5,LYNDON
VT,05850,44.543938,-72.018352,588,-5,LYNDON CENTER
VT,05851,44.546291,-72.050160,588,-5,LYNDONVILLE
VT,05853,44.884260,-71.984377,723,-5,MORGAN
VT,05855,44.934134,-72.193716,723,-5,NEWPORT
VT,05857,44.922956,-72.297462,723,-5,NEWPORT CENTER
VT,05858,44.555530,-71.770359,368,-5,NORTH CONCORD
VT,05859,44.934352,-72.442233,723,-5,NORTH TROY
VT,05860,44.798475,-72.100166,723,-5,ORLEANS
VT,05861,44.380100,-72.092500,588,-5,PASSUMPSIC
VT,05862,44.326748,-72.226265,588,-5,PEACHAM
VT,05863,44.457000,-72.007300,588,-5,SAINT JOHNSBURY CENTER
VT,05866,44.637063,-72.134324,588,-5,SHEFFIELD
VT,05867,44.664254,-72.041961,588,-5,SUTTON
VT,05868,44.853390,-72.364669,723,-5,TROY
VT,05871,44.675866,-71.938815,588,-5,WEST BURKE
VT,05872,44.863513,-72.045785,723,-5,WEST CHARLESTON
VT,05873,44.416422,-72.204239,588,-5,WEST DANVILLE
VT,05874,44.880767,-72.452388,723,-5,WESTFIELD
VT,05875,44.704582,-72.271828,723,-5,BARTON
VT,05901,44.943684,-71.682730,368,-5,AVERILL
VT,05902,45.004698,-71.510151,368,-5,BEECHER FALLS
VT,05903,44.959995,-71.597474,368,-5,CANAAN
VT,05904,44.412812,-71.787784,368,-5,GILMAN
VT,05905,44.719137,-71.618654,368,-5,GUILDHALL
VT,05906,44.470037,-71.701190,368,-5,LUNENBURG
VT,05907,44.932076,-71.811435,368,-5,NORTON
CT,06001,41.791630,-72.854526,38,-5,AVON
CT,06002,41.852981,-72.736005,38,-5,BLOOMFIELD
CT,06006,41.852500,-72.644300,38,-5,WINDSOR
CT,06010,41.681368,-72.940490,38,-5,BRISTOL
CT,06011,41.671400,-72.949400,38,-5,BRISTOL
CT,06013,41.761312,-72.957220,38,-5,BURLINGTON
CT,06016,41.907656,-72.551654,38,-5,BROAD BROOK
CT,06018,42.024547,-73.296278,956,-5,CANAAN
CT,06019,41.863120,-72.913404,38,-5,CANTON
CT,06020,41.874296,-72.899338,38,-5,CANTON CENTER
CT,06021,42.015050,-73.105694,956,-5,COLEBROOK
CT,06022,41.815832,-72.941774,38,-5,COLLINSVILLE
CT,06023,41.615878,-72.720382,38,-5,EAST BERLIN
CT,06024,42.012216,-73.285000,956,-5,EAST CANAAN
CT,06025,41.697200,-72.534700,38,-5,EAST GLASTONBURY
CT,06026,41.939313,-72.736118,38,-5,EAST GRANBY
CT,06027,42.004290,-72.914885,38,-5,EAST HARTLAND
CT,06028,41.847800,-72.596100,38,-5,EAST WINDSOR HILL
CT,06029,41.907038,-72.422811,407,-5,ELLINGTON
CT,06030,41.719700,-72.832600,38,-5,FARMINGTON
CT,06031,41.946985,-73.308842,956,-5,FALLS VILLAGE
CT,06032,41.724962,-72.827648,38,-5,FARMINGTON
CT,06033,41.699979,-72.550419,38,-5,GLASTONBURY
CT,06034,41.719700,-72.832600,38,-5,FARMINGTON
CT,06035,41.960094,-72.799348,38,-5,GRANBY
CT,06037,41.603421,-72.776083,38,-5,BERLIN
CT,06039,41.950747,-73.428777,956,-5,LAKEVILLE
CT,06040,41.762222,-72.522655,38,-5,MANCHESTER
CT,06041,41.775900,-72.521900,38,-5,MANCHESTER
CT,06042,41.800260,-72.527573,38,-5,MANCHESTER
CT,06043,41.766414,-72.438889,407,-5,BOLTON
CT,06045,41.775900,-72.521900,38,-5,MANCHESTER
CT,06050,41.661200,-72.780100,38,-5,NEW BRITAIN
CT,06051,41.667447,-72.770214,38,-5,NEW BRITAIN
CT,06052,41.657118,-72.803642,38,-5,NEW BRITAIN
CT,06053,41.690259,-72.791084,38,-5,NEW BRITAIN
CT,06057,41.846708,-73.007540,956,-5,NEW HARTFORD
CT,06058,41.957252,-73.200952,956,-5,NORFOLK
CT,06059,41.960138,-72.943458,38,-5,NORTH CANTON
CT,06060,41.996784,-72.843489,38,-5,NORTH GRANBY
CT,06061,41.875700,-72.966700,956,-5,PINE MEADOW
CT,06062,41.673817,-72.854160,38,-5,PLAINVILLE
CT,06063,41.926558,-72.970956,956,-5,BARKHAMSTED
CT,06064,41.904800,-72.679500,38,-5,POQUONOCK
CT,06065,41.976157,-73.007264,956,-5,RIVERTON
CT,06066,41.836454,-72.463295,407,-5,VERNON ROCKVILLE
CT,06067,41.656396,-72.669886,38,-5,ROCKY HILL
CT,06068,42.008199,-73.415942,956,-5,SALISBURY
CT,06069,41.855594,-73.434241,956,-5,SHARON
CT,06070,41.868372,-72.817214,38,-5,SIMSBURY
CT,06071,41.990812,-72.436453,407,-5,SOMERS
CT,06072,41.982800,-72.488400,407,-5,SOMERSVILLE
CT,06073,41.645614,-72.566352,38,-5,SOUTH GLASTONBURY
CT,06074,41.833966,-72.571689,38,-5,SOUTH WINDSOR
CT,06075,41.984800,-72.289600,407,-5,STAFFORD
CT,06076,41.986493,-72.253458,407,-5,STAFFORD SPRINGS
CT,06077,41.993800,-72.259400,407,-5,STAFFORDVILLE
CT,06078,41.989507,-72.653976,38,-5,SUFFIELD
CT,06079,41.983400,-73.421900,956,-5,TACONIC
CT,06080,41.985600,-72.642300,38,-5,SUFFIELD
CT,06081,41.906904,-72.767326,38,-5,TARIFFVILLE
CT,06082,41.984371,-72.558100,38,-5,ENFIELD
CT,06083,41.976100,-72.592200,38,-5,ENFIELD
CT,06084,41.883916,-72.362992,407,-5,TOLLAND
CT,06085,41.746852,-72.886981,38,-5,UNIONVILLE
CT,06087,41.757600,-72.886900,38,-5,UNIONVILLE
CT,06088,41.904084,-72.591952,38,-5,EAST WINDSOR
CT,06089,41.838743,-72.823856,38,-5,WEATOGUE
CT,06090,41.957361,-72.865304,38,-5,WEST GRANBY
CT,06091,42.013182,-72.978128,38,-5,WEST HARTLAND
CT,06092,41.868913,-72.849683,38,-5,WEST SIMSBURY
CT,06093,41.994921,-72.728301,38,-5,WEST SUFFIELD
CT,06094,41.901900,-73.136000,956,-5,WINCHESTER CENTER
CT,06095,41.863194,-72.679525,38,-5,WINDSOR
CT,06096,41.923260,-72.654944,38,-5,WINDSOR LOCKS
CT,06098,41.958816,-73.094492,956,-5,WINSTED
CT,06101,41.782600,-72.661300,38,-5,HARTFORD
CT,06102,41.756900,-72.685500,38,-5,HARTFORD
CT,06103,41.765210,-72.671970,38,-5,HARTFORD
CT,06104,41.795900,-72.662800,38,-5,HARTFORD
CT,06105,41.776070,-72.700117,38,-5,HARTFORD
CT,06106,41.745017,-72.685657,38,-5,HARTFORD
CT,06107,41.753138,-72.758694,38,-5,WEST HARTFORD
CT,06108,41.777484,-72.621944,38,-5,EAST HARTFORD
CT,06109,41.697806,-72.657788,38,-5,WETHERSFIELD
CT,06110,41.734077,-72.738332,38,-5,WEST HARTFORD
CT,06111,41.685889,-72.731474,38,-5,NEWINGTON
CT,06112,41.791489,-72.697629,38,-5,HARTFORD
CT,06114,41.740216,-72.674882,38,-5,HARTFORD
